[
  {
    "lat": 51.685,
    "lng": -4.99,
    "name": "Pembroke - UK Electricity Production",
    "type": "CVA",
    "capacity": 0,
    "fuel_type": "Unknown",
    "status": "Unknown",
    "operator": "",
    "plant_id": "GBR1000372",
    "source": "electricityproduction.uk",
    "type_category": "Other"
  },
  {
    "lat": 53.3604,
    "lng": -0.8102,
    "name": "West Burton - UK Electricity Production",
    "type": "CVA",
    "capacity": 0,
    "fuel_type": "Unknown",
    "status": "Unknown",
    "operator": "",
    "plant_id": "GBR1000143",
    "source": "electricityproduction.uk",
    "type_category": "Other"
  },
  {
    "lat": 53.304,
    "lng": -0.7815,
    "name": "Cottam - UK Electricity Production",
    "type": "CVA",
    "capacity": 0,
    "fuel_type": "Unknown",
    "status": "Unknown",
    "operator": "",
    "plant_id": "GBR1000142",
    "source": "electricityproduction.uk",
    "type_category": "Other"
  },
  {
    "lat": 52.8653,
    "lng": -1.255,
    "name": "Ratcliffe - UK Electricity Production",
    "type": "CVA",
    "capacity": 0,
    "fuel_type": "Unknown",
    "status": "Unknown",
    "operator": "",
    "plant_id": "GBR1000496",
    "source": "electricityproduction.uk",
    "type_category": "Other"
  },
  {
    "lat": 53.7356,
    "lng": -0.9911,
    "name": "Drax - UK Electricity Production",
    "type": "CVA",
    "capacity": 0,
    "fuel_type": "Unknown",
    "status": "Unknown",
    "operator": "",
    "plant_id": "GBR0000174",
    "source": "electricityproduction.uk",
    "type_category": "Other"
  },
  {
    "lat": 53.7116,
    "lng": -1.1269,
    "name": "Eggborough - UK Electricity Production",
    "type": "CVA",
    "capacity": 0,
    "fuel_type": "Unknown",
    "status": "Unknown",
    "operator": "",
    "plant_id": "GBR1000147",
    "source": "electricityproduction.uk",
    "type_category": "Other"
  },
  {
    "lat": 53.1181,
    "lng": -4.1032,
    "name": "Dinorwig - UK Electricity Production",
    "type": "CVA",
    "capacity": 0,
    "fuel_type": "Unknown",
    "status": "Unknown",
    "operator": "",
    "plant_id": "GBR1000151",
    "source": "electricityproduction.uk",
    "type_category": "Other"
  },
  {
    "lat": 53.073,
    "lng": -0.8585,
    "name": "Staythorpe C - UK Electricity Production",
    "type": "CVA",
    "capacity": 0,
    "fuel_type": "Unknown",
    "status": "Unknown",
    "operator": "",
    "plant_id": "GBR1000373",
    "source": "electricityproduction.uk",
    "type_category": "Other"
  },
  {
    "lat": 53.1186,
    "lng": -4.1139,
    "name": "Dinorwig - UK Electricity Production",
    "type": "CVA",
    "capacity": 0,
    "fuel_type": "Unknown",
    "status": "Unknown",
    "operator": "",
    "plant_id": "GBR2001139",
    "source": "electricityproduction.uk",
    "type_category": "Other"
  },
  {
    "lat": 51.3873,
    "lng": -3.4049,
    "name": "Aberthaw B - UK Electricity Production",
    "type": "CVA",
    "capacity": 0,
    "fuel_type": "Unknown",
    "status": "Unknown",
    "operator": "",
    "plant_id": "GBR1000374",
    "source": "electricityproduction.uk",
    "type_category": "Other"
  },
  {
    "lat": 51.6246,
    "lng": -1.2683,
    "name": "Didcot B - UK Electricity Production",
    "type": "CVA",
    "capacity": 0,
    "fuel_type": "Unknown",
    "status": "Unknown",
    "operator": "",
    "plant_id": "GBR1000369",
    "source": "electricityproduction.uk",
    "type_category": "Other"
  },
  {
    "lat": 51.4444,
    "lng": 0.7114,
    "name": "Grain CHP - UK Electricity Production",
    "type": "CVA",
    "capacity": 0,
    "fuel_type": "Unknown",
    "status": "Unknown",
    "operator": "",
    "plant_id": "GBR1000495",
    "source": "electricityproduction.uk",
    "type_category": "Other"
  },
  {
    "lat": 53.2317,
    "lng": -3.0815,
    "name": "Connahs Quay - UK Electricity Production",
    "type": "CVA",
    "capacity": 0,
    "fuel_type": "Unknown",
    "status": "Unknown",
    "operator": "",
    "plant_id": "GBR1000492",
    "source": "electricityproduction.uk",
    "type_category": "Other"
  },
  {
    "lat": 53.3631,
    "lng": -0.7976,
    "name": "West Burton CCGT - UK Electricity Production",
    "type": "CVA",
    "capacity": 0,
    "fuel_type": "Unknown",
    "status": "Unknown",
    "operator": "",
    "plant_id": "GBR1000141",
    "source": "electricityproduction.uk",
    "type_category": "Other"
  },
  {
    "lat": 53.6008,
    "lng": -0.1446,
    "name": "South Humber Bank - UK Electricity Production",
    "type": "CVA",
    "capacity": 0,
    "fuel_type": "Unknown",
    "status": "Unknown",
    "operator": "",
    "plant_id": "GBR1000074",
    "source": "electricityproduction.uk",
    "type_category": "Other"
  },
  {
    "lat": 53.6366,
    "lng": -0.2395,
    "name": "VPI Immingham - UK Electricity Production",
    "type": "CVA",
    "capacity": 0,
    "fuel_type": "Unknown",
    "status": "Unknown",
    "operator": "",
    "plant_id": "GBR1000517",
    "source": "electricityproduction.uk",
    "type_category": "Other"
  },
  {
    "lat": 54.0285,
    "lng": -2.916,
    "name": "Heysham 2 - UK Electricity Production",
    "type": "CVA",
    "capacity": 0,
    "fuel_type": "Unknown",
    "status": "Unknown",
    "operator": "",
    "plant_id": "GBR1000055",
    "source": "electricityproduction.uk",
    "type_category": "Other"
  },
  {
    "lat": 53.6815,
    "lng": 1.4207,
    "name": "Hornsea 1 - Heron & Njord - UK Electricity Production",
    "type": "CVA",
    "capacity": 0,
    "fuel_type": "Unknown",
    "status": "Unknown",
    "operator": "",
    "plant_id": "GBR2001034",
    "source": "electricityproduction.uk",
    "type_category": "Other"
  },
  {
    "lat": 53.735,
    "lng": -0.2432,
    "name": "Saltend - UK Electricity Production",
    "type": "CVA",
    "capacity": 0,
    "fuel_type": "Unknown",
    "status": "Unknown",
    "operator": "",
    "plant_id": "GBR2000263",
    "source": "electricityproduction.uk",
    "type_category": "Other"
  },
  {
    "lat": 52.2145,
    "lng": 1.6206,
    "name": "Sizewell B - UK Electricity Production",
    "type": "CVA",
    "capacity": 0,
    "fuel_type": "Unknown",
    "status": "Unknown",
    "operator": "",
    "plant_id": "GBR1000058",
    "source": "electricityproduction.uk",
    "type_category": "Other"
  },
  {
    "lat": 55.9679,
    "lng": -2.4086,
    "name": "Torness - UK Electricity Production",
    "type": "CVA",
    "capacity": 0,
    "fuel_type": "Unknown",
    "status": "Unknown",
    "operator": "",
    "plant_id": "GBR1000059",
    "source": "electricityproduction.uk",
    "type_category": "Other"
  },
  {
    "lat": 54.6341,
    "lng": -1.1801,
    "name": "Hartlepool - UK Electricity Production",
    "type": "CVA",
    "capacity": 0,
    "fuel_type": "Unknown",
    "status": "Unknown",
    "operator": "",
    "plant_id": "GBR1000053",
    "source": "electricityproduction.uk",
    "type_category": "Other"
  },
  {
    "lat": 57.4772,
    "lng": -1.7889,
    "name": "Peterhead - UK Electricity Production",
    "type": "CVA",
    "capacity": 0,
    "fuel_type": "Unknown",
    "status": "Unknown",
    "operator": "",
    "plant_id": "GBR2000723",
    "source": "electricityproduction.uk",
    "type_category": "Other"
  },
  {
    "lat": 54.0285,
    "lng": -2.916,
    "name": "Heysham 1 - UK Electricity Production",
    "type": "CVA",
    "capacity": 0,
    "fuel_type": "Unknown",
    "status": "Unknown",
    "operator": "",
    "plant_id": "GBR1000054",
    "source": "electricityproduction.uk",
    "type_category": "Other"
  },
  {
    "lat": 50.9133,
    "lng": 0.964,
    "name": "Dungeness B - UK Electricity Production",
    "type": "CVA",
    "capacity": 0,
    "fuel_type": "Unknown",
    "status": "Unknown",
    "operator": "",
    "plant_id": "GBR1000052",
    "source": "electricityproduction.uk",
    "type_category": "Other"
  },
  {
    "lat": 55.7204,
    "lng": -4.8964,
    "name": "Hunterston B - UK Electricity Production",
    "type": "CVA",
    "capacity": 0,
    "fuel_type": "Unknown",
    "status": "Unknown",
    "operator": "",
    "plant_id": "GBR1000057",
    "source": "electricityproduction.uk",
    "type_category": "Other"
  },
  {
    "lat": 51.2085,
    "lng": -3.1334,
    "name": "Hinkley Point B - UK Electricity Production",
    "type": "CVA",
    "capacity": 0,
    "fuel_type": "Unknown",
    "status": "Unknown",
    "operator": "",
    "plant_id": "GBR1000056",
    "source": "electricityproduction.uk",
    "type_category": "Other"
  },
  {
    "lat": 50.3882,
    "lng": -4.0118,
    "name": "Langage - UK Electricity Production",
    "type": "CVA",
    "capacity": 0,
    "fuel_type": "Unknown",
    "status": "Unknown",
    "operator": "",
    "plant_id": "GBR1000073",
    "source": "electricityproduction.uk",
    "type_category": "Other"
  },
  {
    "lat": 53.4366,
    "lng": -2.4077,
    "name": "Carrington - UK Electricity Production",
    "type": "CVA",
    "capacity": 0,
    "fuel_type": "Unknown",
    "status": "Unknown",
    "operator": "",
    "plant_id": "GBR2000124",
    "source": "electricityproduction.uk",
    "type_category": "Other"
  },
  {
    "lat": 52.773,
    "lng": -0.1441,
    "name": "Spalding - UK Electricity Production",
    "type": "CVA",
    "capacity": 0,
    "fuel_type": "Unknown",
    "status": "Unknown",
    "operator": "",
    "plant_id": "GBR0006165",
    "source": "electricityproduction.uk",
    "type_category": "Other"
  },
  {
    "lat": 51.5475,
    "lng": -2.975,
    "name": "Severn Power - UK Electricity Production",
    "type": "CVA",
    "capacity": 0,
    "fuel_type": "Unknown",
    "status": "Unknown",
    "operator": "",
    "plant_id": "GBR1000313",
    "source": "electricityproduction.uk",
    "type_category": "Other"
  },
  {
    "lat": 50.8998,
    "lng": -1.4384,
    "name": "Marchwood - UK Electricity Production",
    "type": "CVA",
    "capacity": 0,
    "fuel_type": "Unknown",
    "status": "Unknown",
    "operator": "",
    "plant_id": "GBR1000311",
    "source": "electricityproduction.uk",
    "type_category": "Other"
  },
  {
    "lat": 52.7579,
    "lng": 0.1923,
    "name": "Sutton Bridge - UK Electricity Production",
    "type": "CVA",
    "capacity": 0,
    "fuel_type": "Unknown",
    "status": "Unknown",
    "operator": "",
    "plant_id": "GBR2000518",
    "source": "electricityproduction.uk",
    "type_category": "Other"
  },
  {
    "lat": 51.5392,
    "lng": -2.67,
    "name": "Seabank 1 - UK Electricity Production",
    "type": "CVA",
    "capacity": 0,
    "fuel_type": "Unknown",
    "status": "Unknown",
    "operator": "",
    "plant_id": "GBR2000806",
    "source": "electricityproduction.uk",
    "type_category": "Other"
  },
  {
    "lat": 53.3147,
    "lng": -2.7232,
    "name": "Rocksavage - UK Electricity Production",
    "type": "CVA",
    "capacity": 0,
    "fuel_type": "Unknown",
    "status": "Unknown",
    "operator": "",
    "plant_id": "GBR1000212",
    "source": "electricityproduction.uk",
    "type_category": "Other"
  },
  {
    "lat": 51.4249,
    "lng": 0.6014,
    "name": "Damhead Creek - UK Electricity Production",
    "type": "CVA",
    "capacity": 0,
    "fuel_type": "Unknown",
    "status": "Unknown",
    "operator": "",
    "plant_id": "GBR1000465",
    "source": "electricityproduction.uk",
    "type_category": "Other"
  },
  {
    "lat": 51.5119,
    "lng": 0.5079,
    "name": "Coryton - UK Electricity Production",
    "type": "CVA",
    "capacity": 0,
    "fuel_type": "Unknown",
    "status": "Unknown",
    "operator": "",
    "plant_id": "GBR1000211",
    "source": "electricityproduction.uk",
    "type_category": "Other"
  },
  {
    "lat": 52.2046,
    "lng": -0.2693,
    "name": "Little Barford - UK Electricity Production",
    "type": "CVA",
    "capacity": 0,
    "fuel_type": "Unknown",
    "status": "Unknown",
    "operator": "",
    "plant_id": "GBR1000371",
    "source": "electricityproduction.uk",
    "type_category": "Other"
  },
  {
    "lat": 51.7626,
    "lng": 0.0094,
    "name": "Rye House - UK Electricity Production",
    "type": "CVA",
    "capacity": 0,
    "fuel_type": "Unknown",
    "status": "Unknown",
    "operator": "",
    "plant_id": "GBR1000466",
    "source": "electricityproduction.uk",
    "type_category": "Other"
  },
  {
    "lat": 51.4396,
    "lng": 0.6894,
    "name": "Medway - UK Electricity Production",
    "type": "CVA",
    "capacity": 0,
    "fuel_type": "Unknown",
    "status": "Unknown",
    "operator": "",
    "plant_id": "GBR1000437",
    "source": "electricityproduction.uk",
    "type_category": "Other"
  },
  {
    "lat": 54.09,
    "lng": -3.74,
    "name": "Walney 3 - UK Electricity Production",
    "type": "CVA",
    "capacity": 0,
    "fuel_type": "Unknown",
    "status": "Unknown",
    "operator": "",
    "plant_id": "GBR2001036",
    "source": "electricityproduction.uk",
    "type_category": "Other"
  },
  {
    "lat": 51.6217,
    "lng": 1.4958,
    "name": "London Array - UK Electricity Production",
    "type": "CVA",
    "capacity": 0,
    "fuel_type": "Unknown",
    "status": "Unknown",
    "operator": "",
    "plant_id": "GBR0002511",
    "source": "electricityproduction.uk",
    "type_category": "Other"
  },
  {
    "lat": 54.8428,
    "lng": -5.7853,
    "name": "Ballylumford C - UK Electricity Production",
    "type": "CVA",
    "capacity": 0,
    "fuel_type": "Unknown",
    "status": "Unknown",
    "operator": "",
    "plant_id": "GBR1000001",
    "source": "electricityproduction.uk",
    "type_category": "Other"
  },
  {
    "lat": 53.6535,
    "lng": -0.2556,
    "name": "Killingholme - UK Electricity Production",
    "type": "CVA",
    "capacity": 0,
    "fuel_type": "Unknown",
    "status": "Unknown",
    "operator": "",
    "plant_id": "GBR1000500",
    "source": "electricityproduction.uk",
    "type_category": "Other"
  },
  {
    "lat": 58.0882,
    "lng": -2.9502,
    "name": "Beatrice - UK Electricity Production",
    "type": "CVA",
    "capacity": 0,
    "fuel_type": "Unknown",
    "status": "Unknown",
    "operator": "",
    "plant_id": "GBR2001031",
    "source": "electricityproduction.uk",
    "type_category": "Other"
  },
  {
    "lat": 53.454,
    "lng": -3.6266,
    "name": "Gwynt y Mor - UK Electricity Production",
    "type": "CVA",
    "capacity": 0,
    "fuel_type": "Unknown",
    "status": "Unknown",
    "operator": "",
    "plant_id": "GBR0002543",
    "source": "electricityproduction.uk",
    "type_category": "Other"
  },
  {
    "lat": 54.845,
    "lng": -5.787,
    "name": "Ballylumford B - UK Electricity Production",
    "type": "CVA",
    "capacity": 0,
    "fuel_type": "Unknown",
    "status": "Unknown",
    "operator": "",
    "plant_id": "GBR1000003",
    "source": "electricityproduction.uk",
    "type_category": "Other"
  },
  {
    "lat": 51.6145,
    "lng": -3.8352,
    "name": "Baglan Bay CCGT - UK Electricity Production",
    "type": "CVA",
    "capacity": 0,
    "fuel_type": "Unknown",
    "status": "Unknown",
    "operator": "",
    "plant_id": "GBR1000312",
    "source": "electricityproduction.uk",
    "type_category": "Other"
  },
  {
    "lat": 54.7255,
    "lng": -5.7653,
    "name": "Kilroot - UK Electricity Production",
    "type": "CVA",
    "capacity": 0,
    "fuel_type": "Unknown",
    "status": "Unknown",
    "operator": "",
    "plant_id": "GBR1000002",
    "source": "electricityproduction.uk",
    "type_category": "Other"
  },
  {
    "lat": 53.2332,
    "lng": -3.0547,
    "name": "Deeside - UK Electricity Production",
    "type": "CVA",
    "capacity": 0,
    "fuel_type": "Unknown",
    "status": "Unknown",
    "operator": "",
    "plant_id": "GBR2000262",
    "source": "electricityproduction.uk",
    "type_category": "Other"
  },
  {
    "lat": 51.9176,
    "lng": 1.9284,
    "name": "Greater Gabbard - UK Electricity Production",
    "type": "CVA",
    "capacity": 0,
    "fuel_type": "Unknown",
    "status": "Unknown",
    "operator": "",
    "plant_id": "GBR0002510",
    "source": "electricityproduction.uk",
    "type_category": "Other"
  },
  {
    "lat": 56.394,
    "lng": -5.115,
    "name": "Cruachan - UK Electricity Production",
    "type": "CVA",
    "capacity": 0,
    "fuel_type": "Unknown",
    "status": "Unknown",
    "operator": "",
    "plant_id": "GBR1000455",
    "source": "electricityproduction.uk",
    "type_category": "Other"
  },
  {
    "lat": 56.4112,
    "lng": -5.1135,
    "name": "Cruachan - UK Electricity Production",
    "type": "CVA",
    "capacity": 0,
    "fuel_type": "Unknown",
    "status": "Unknown",
    "operator": "",
    "plant_id": "GBR2001140",
    "source": "electricityproduction.uk",
    "type_category": "Other"
  },
  {
    "lat": 52.5839,
    "lng": 1.7338,
    "name": "Great Yarmouth - UK Electricity Production",
    "type": "CVA",
    "capacity": 0,
    "fuel_type": "Unknown",
    "status": "Unknown",
    "operator": "",
    "plant_id": "GBR1000370",
    "source": "electricityproduction.uk",
    "type_category": "Other"
  },
  {
    "lat": 50.8292,
    "lng": -0.2311,
    "name": "Shoreham - UK Electricity Production",
    "type": "CVA",
    "capacity": 0,
    "fuel_type": "Unknown",
    "status": "Unknown",
    "operator": "",
    "plant_id": "GBR2000769",
    "source": "electricityproduction.uk",
    "type_category": "Other"
  },
  {
    "lat": 51.5392,
    "lng": -2.67,
    "name": "Seabank 2 - UK Electricity Production",
    "type": "CVA",
    "capacity": 0,
    "fuel_type": "Unknown",
    "status": "Unknown",
    "operator": "",
    "plant_id": "GBR1000480",
    "source": "electricityproduction.uk",
    "type_category": "Other"
  },
  {
    "lat": 51.6625,
    "lng": -0.0225,
    "name": "Enfield - UK Electricity Production",
    "type": "CVA",
    "capacity": 0,
    "fuel_type": "Unknown",
    "status": "Unknown",
    "operator": "",
    "plant_id": "GBR1000494",
    "source": "electricityproduction.uk",
    "type_category": "Other"
  },
  {
    "lat": 55.0437,
    "lng": -7.2487,
    "name": "Coolkeeragh - UK Electricity Production",
    "type": "CVA",
    "capacity": 0,
    "fuel_type": "Unknown",
    "status": "Unknown",
    "operator": "",
    "plant_id": "GBR1000075",
    "source": "electricityproduction.uk",
    "type_category": "Other"
  },
  {
    "lat": 53.1175,
    "lng": 0.6135,
    "name": "Dudgeon East - UK Electricity Production",
    "type": "CVA",
    "capacity": 0,
    "fuel_type": "Unknown",
    "status": "Unknown",
    "operator": "",
    "plant_id": "GBR2001037",
    "source": "electricityproduction.uk",
    "type_category": "Other"
  },
  {
    "lat": 52.5104,
    "lng": -0.6814,
    "name": "Corby - UK Electricity Production",
    "type": "CVA",
    "capacity": 0,
    "fuel_type": "Unknown",
    "status": "Unknown",
    "operator": "",
    "plant_id": "GBR1000077",
    "source": "electricityproduction.uk",
    "type_category": "Other"
  },
  {
    "lat": 50.64,
    "lng": -0.18,
    "name": "Rampion Offshore Wind Farm (Hastings Zone) - UK Electricity Production",
    "type": "CVA",
    "capacity": 0,
    "fuel_type": "Unknown",
    "status": "Unknown",
    "operator": "",
    "plant_id": "GBR2001030",
    "source": "electricityproduction.uk",
    "type_category": "Other"
  },
  {
    "lat": 51.6579,
    "lng": -1.2287,
    "name": "EFDA JJET Fusion Flywheel - UK Electricity Production",
    "type": "CVA",
    "capacity": 0,
    "fuel_type": "Unknown",
    "status": "Unknown",
    "operator": "",
    "plant_id": "GBR2001150",
    "source": "electricityproduction.uk",
    "type_category": "Other"
  },
  {
    "lat": 53.3051,
    "lng": -0.7858,
    "name": "Cottam Development Centre - UK Electricity Production",
    "type": "CVA",
    "capacity": 0,
    "fuel_type": "Unknown",
    "status": "Unknown",
    "operator": "",
    "plant_id": "GBR1000493",
    "source": "electricityproduction.uk",
    "type_category": "Other"
  },
  {
    "lat": 53.9851,
    "lng": -3.462,
    "name": "West of Duddon Sands - UK Electricity Production",
    "type": "CVA",
    "capacity": 0,
    "fuel_type": "Unknown",
    "status": "Unknown",
    "operator": "",
    "plant_id": "GBR0002519",
    "source": "electricityproduction.uk",
    "type_category": "Other"
  },
  {
    "lat": 52.9807,
    "lng": -3.9686,
    "name": "Ffestiniog - UK Electricity Production",
    "type": "CVA",
    "capacity": 0,
    "fuel_type": "Unknown",
    "status": "Unknown",
    "operator": "",
    "plant_id": "GBR1000152",
    "source": "electricityproduction.uk",
    "type_category": "Other"
  },
  {
    "lat": 51.88,
    "lng": 2.04,
    "name": "Galloper Wind Farm - UK Electricity Production",
    "type": "CVA",
    "capacity": 0,
    "fuel_type": "Unknown",
    "status": "Unknown",
    "operator": "",
    "plant_id": "GBR2001035",
    "source": "electricityproduction.uk",
    "type_category": "Other"
  },
  {
    "lat": 55.4416,
    "lng": -3.5427,
    "name": "Clyde Wind Farm - UK Electricity Production",
    "type": "CVA",
    "capacity": 0,
    "fuel_type": "Unknown",
    "status": "Unknown",
    "operator": "",
    "plant_id": "GBR2001047",
    "source": "electricityproduction.uk",
    "type_category": "Other"
  },
  {
    "lat": 55.6812,
    "lng": -4.2791,
    "name": "Whitelee - UK Electricity Production",
    "type": "CVA",
    "capacity": 0,
    "fuel_type": "Unknown",
    "status": "Unknown",
    "operator": "",
    "plant_id": "GBR0003489",
    "source": "electricityproduction.uk",
    "type_category": "Other"
  },
  {
    "lat": 53.1353,
    "lng": 1.1479,
    "name": "Sheringham Shoal BMU 1 & 2 - UK Electricity Production",
    "type": "CVA",
    "capacity": 0,
    "fuel_type": "Unknown",
    "status": "Unknown",
    "operator": "",
    "plant_id": "GBR0002512",
    "source": "electricityproduction.uk",
    "type_category": "Other"
  },
  {
    "lat": 57.2618,
    "lng": -4.4835,
    "name": "Foyers - UK Electricity Production",
    "type": "CVA",
    "capacity": 0,
    "fuel_type": "Unknown",
    "status": "Unknown",
    "operator": "",
    "plant_id": "GBR2000657",
    "source": "electricityproduction.uk",
    "type_category": "Other"
  },
  {
    "lat": 51.4299,
    "lng": 1.6334,
    "name": "Thanet - UK Electricity Production",
    "type": "CVA",
    "capacity": 0,
    "fuel_type": "Unknown",
    "status": "Unknown",
    "operator": "",
    "plant_id": "GBR0002499",
    "source": "electricityproduction.uk",
    "type_category": "Other"
  },
  {
    "lat": 53.136,
    "lng": 0.5892,
    "name": "Race Bank (Phase 1) - UK Electricity Production",
    "type": "CVA",
    "capacity": 0,
    "fuel_type": "Unknown",
    "status": "Unknown",
    "operator": "",
    "plant_id": "GBR0002515",
    "source": "electricityproduction.uk",
    "type_category": "Other"
  },
  {
    "lat": 53.1842,
    "lng": 0.4981,
    "name": "Lincs - UK Electricity Production",
    "type": "CVA",
    "capacity": 0,
    "fuel_type": "Unknown",
    "status": "Unknown",
    "operator": "",
    "plant_id": "GBR0002513",
    "source": "electricityproduction.uk",
    "type_category": "Other"
  },
  {
    "lat": 53.48,
    "lng": -3.27,
    "name": "Burbo Bank Extension (Burbo Bank 2) - UK Electricity Production",
    "type": "CVA",
    "capacity": 0,
    "fuel_type": "Unknown",
    "status": "Unknown",
    "operator": "",
    "plant_id": "GBR0002539",
    "source": "electricityproduction.uk",
    "type_category": "Other"
  },
  {
    "lat": 52.5769,
    "lng": -0.204,
    "name": "Peterborough - UK Electricity Production",
    "type": "CVA",
    "capacity": 0,
    "fuel_type": "Unknown",
    "status": "Unknown",
    "operator": "",
    "plant_id": "GBR2000128",
    "source": "electricityproduction.uk",
    "type_category": "Other"
  },
  {
    "lat": 54.9885,
    "lng": -4.8017,
    "name": "Kilgallioch wind farm - UK Electricity Production",
    "type": "CVA",
    "capacity": 0,
    "fuel_type": "Unknown",
    "status": "Unknown",
    "operator": "",
    "plant_id": "GBR2001062",
    "source": "electricityproduction.uk",
    "type_category": "Other"
  },
  {
    "lat": 51.4089,
    "lng": -3.2301,
    "name": "Barry - UK Electricity Production",
    "type": "CVA",
    "capacity": 0,
    "fuel_type": "Unknown",
    "status": "Unknown",
    "operator": "",
    "plant_id": "GBR2000125",
    "source": "electricityproduction.uk",
    "type_category": "Other"
  },
  {
    "lat": 51.5491,
    "lng": -2.9705,
    "name": "Uskmouth Power - UK Electricity Production",
    "type": "CVA",
    "capacity": 0,
    "fuel_type": "Unknown",
    "status": "Unknown",
    "operator": "",
    "plant_id": "GBR2000811",
    "source": "electricityproduction.uk",
    "type_category": "Other"
  },
  {
    "lat": 51.6555,
    "lng": -3.6957,
    "name": "Pen y Cymoedd - UK Electricity Production",
    "type": "CVA",
    "capacity": 0,
    "fuel_type": "Unknown",
    "status": "Unknown",
    "operator": "",
    "plant_id": "GBR0004595",
    "source": "electricityproduction.uk",
    "type_category": "Other"
  },
  {
    "lat": 57.1269,
    "lng": -4.5264,
    "name": "Stronelairg Wind Farm - UK Electricity Production",
    "type": "CVA",
    "capacity": 0,
    "fuel_type": "Unknown",
    "status": "Unknown",
    "operator": "",
    "plant_id": "GBR2001073",
    "source": "electricityproduction.uk",
    "type_category": "Other"
  },
  {
    "lat": 53.3875,
    "lng": 0.5006,
    "name": "Humber Gateway - UK Electricity Production",
    "type": "CVA",
    "capacity": 0,
    "fuel_type": "Unknown",
    "status": "Unknown",
    "operator": "",
    "plant_id": "GBR0002544",
    "source": "electricityproduction.uk",
    "type_category": "Other"
  },
  {
    "lat": 55.6772,
    "lng": -4.2868,
    "name": "Whitelee 2 - UK Electricity Production",
    "type": "CVA",
    "capacity": 0,
    "fuel_type": "Unknown",
    "status": "Unknown",
    "operator": "",
    "plant_id": "GBR0003981",
    "source": "electricityproduction.uk",
    "type_category": "Other"
  },
  {
    "lat": 53.0977,
    "lng": 0.5615,
    "name": "Westermost Rough - UK Electricity Production",
    "type": "CVA",
    "capacity": 0,
    "fuel_type": "Unknown",
    "status": "Unknown",
    "operator": "",
    "plant_id": "GBR0002545",
    "source": "electricityproduction.uk",
    "type_category": "Other"
  },
  {
    "lat": 56.5812,
    "lng": -3.7338,
    "name": "Griffin - UK Electricity Production",
    "type": "CVA",
    "capacity": 0,
    "fuel_type": "Unknown",
    "status": "Unknown",
    "operator": "",
    "plant_id": "GBR0004028",
    "source": "electricityproduction.uk",
    "type_category": "Other"
  },
  {
    "lat": 54.0807,
    "lng": -3.609,
    "name": "Walney 2 - UK Electricity Production",
    "type": "CVA",
    "capacity": 0,
    "fuel_type": "Unknown",
    "status": "Unknown",
    "operator": "",
    "plant_id": "GBR0002506",
    "source": "electricityproduction.uk",
    "type_category": "Other"
  },
  {
    "lat": 54.0394,
    "lng": -3.5158,
    "name": "Walney 1 - UK Electricity Production",
    "type": "CVA",
    "capacity": 0,
    "fuel_type": "Unknown",
    "status": "Unknown",
    "operator": "",
    "plant_id": "GBR0002500",
    "source": "electricityproduction.uk",
    "type_category": "Other"
  },
  {
    "lat": 54.4184,
    "lng": -3.4883,
    "name": "Fellside CHP - UK Electricity Production",
    "type": "CVA",
    "capacity": 0,
    "fuel_type": "Unknown",
    "status": "Unknown",
    "operator": "",
    "plant_id": "GBR1000317",
    "source": "electricityproduction.uk",
    "type_category": "Other"
  },
  {
    "lat": 57.3509,
    "lng": -3.1317,
    "name": "Dorenell Wind Farm (Previously Site A and B Scaut Hill) - UK Electricity Production",
    "type": "CVA",
    "capacity": 0,
    "fuel_type": "Unknown",
    "status": "Unknown",
    "operator": "",
    "plant_id": "GBR2001057",
    "source": "electricityproduction.uk",
    "type_category": "Other"
  },
  {
    "lat": 55.5041,
    "lng": -3.5479,
    "name": "Clyde Wind Farm Extension (Clyde 2) - UK Electricity Production",
    "type": "CVA",
    "capacity": 0,
    "fuel_type": "Unknown",
    "status": "Unknown",
    "operator": "",
    "plant_id": "GBR0004178",
    "source": "electricityproduction.uk",
    "type_category": "Other"
  },
  {
    "lat": 56.2512,
    "lng": -4.7117,
    "name": "Sloy - UK Electricity Production",
    "type": "CVA",
    "capacity": 0,
    "fuel_type": "Unknown",
    "status": "Unknown",
    "operator": "",
    "plant_id": "GBR1000404",
    "source": "electricityproduction.uk",
    "type_category": "Other"
  },
  {
    "lat": 54.0889,
    "lng": -3.4386,
    "name": "Ormonde - UK Electricity Production",
    "type": "CVA",
    "capacity": 0,
    "fuel_type": "Unknown",
    "status": "Unknown",
    "operator": "",
    "plant_id": "GBR0002509",
    "source": "electricityproduction.uk",
    "type_category": "Other"
  },
  {
    "lat": 53.5411,
    "lng": -0.5055,
    "name": "Glanford Brigg - UK Electricity Production",
    "type": "CVA",
    "capacity": 0,
    "fuel_type": "Unknown",
    "status": "Unknown",
    "operator": "",
    "plant_id": "GBR2000126",
    "source": "electricityproduction.uk",
    "type_category": "Other"
  },
  {
    "lat": 55.8313,
    "lng": -2.688,
    "name": "Fallago Rig - UK Electricity Production",
    "type": "CVA",
    "capacity": 0,
    "fuel_type": "Unknown",
    "status": "Unknown",
    "operator": "",
    "plant_id": "GBR0004059",
    "source": "electricityproduction.uk",
    "type_category": "Other"
  },
  {
    "lat": 51.5459,
    "lng": -0.2575,
    "name": "Taylor's Lane GT - UK Electricity Production",
    "type": "CVA",
    "capacity": 0,
    "fuel_type": "Unknown",
    "status": "Unknown",
    "operator": "",
    "plant_id": "GBR1000499",
    "source": "electricityproduction.uk",
    "type_category": "Other"
  },
  {
    "lat": 54.7251,
    "lng": -5.7643,
    "name": "Kilroot OCGT - UK Electricity Production",
    "type": "CVA",
    "capacity": 0,
    "fuel_type": "Unknown",
    "status": "Unknown",
    "operator": "",
    "plant_id": "GBR1000005",
    "source": "electricityproduction.uk",
    "type_category": "Other"
  },
  {
    "lat": 50.3955,
    "lng": -4.8996,
    "name": "Indian Queens - UK Electricity Production",
    "type": "CVA",
    "capacity": 0,
    "fuel_type": "Unknown",
    "status": "Unknown",
    "operator": "",
    "plant_id": "GBR1000150",
    "source": "electricityproduction.uk",
    "type_category": "Other"
  },
  {
    "lat": 50.7469,
    "lng": -1.2862,
    "name": "Cowes - UK Electricity Production",
    "type": "CVA",
    "capacity": 0,
    "fuel_type": "Unknown",
    "status": "Unknown",
    "operator": "",
    "plant_id": "GBR1000376",
    "source": "electricityproduction.uk",
    "type_category": "Other"
  },
  {
    "lat": 55.8995,
    "lng": -2.5293,
    "name": "Crystal Rig 2 - UK Electricity Production",
    "type": "CVA",
    "capacity": 0,
    "fuel_type": "Unknown",
    "status": "Unknown",
    "operator": "",
    "plant_id": "GBR0003440",
    "source": "electricityproduction.uk",
    "type_category": "Other"
  },
  {
    "lat": 55.239,
    "lng": -3.5742,
    "name": "Harestanes - UK Electricity Production",
    "type": "CVA",
    "capacity": 0,
    "fuel_type": "Unknown",
    "status": "Unknown",
    "operator": "",
    "plant_id": "GBR0004119",
    "source": "electricityproduction.uk",
    "type_category": "Other"
  },
  {
    "lat": 55.7622,
    "lng": -3.7626,
    "name": "Black Law - UK Electricity Production",
    "type": "CVA",
    "capacity": 0,
    "fuel_type": "Unknown",
    "status": "Unknown",
    "operator": "",
    "plant_id": "GBR0003116",
    "source": "electricityproduction.uk",
    "type_category": "Other"
  },
  {
    "lat": 55.0688,
    "lng": -4.7971,
    "name": "Arecleoch - UK Electricity Production",
    "type": "CVA",
    "capacity": 0,
    "fuel_type": "Unknown",
    "status": "Unknown",
    "operator": "",
    "plant_id": "GBR0003258",
    "source": "electricityproduction.uk",
    "type_category": "Other"
  },
  {
    "lat": 55.2568,
    "lng": -4.7319,
    "name": "Hadyard Hill - UK Electricity Production",
    "type": "CVA",
    "capacity": 0,
    "fuel_type": "Unknown",
    "status": "Unknown",
    "operator": "",
    "plant_id": "GBR0003109",
    "source": "electricityproduction.uk",
    "type_category": "Other"
  },
  {
    "lat": 54.845,
    "lng": -5.787,
    "name": "Ballylumford B OCGT - UK Electricity Production",
    "type": "CVA",
    "capacity": 0,
    "fuel_type": "Unknown",
    "status": "Unknown",
    "operator": "",
    "plant_id": "GBR1000004",
    "source": "electricityproduction.uk",
    "type_category": "Other"
  },
  {
    "lat": 57.2191,
    "lng": -4.5819,
    "name": "Bhlaraidh (previously Balmacaan) - UK Electricity Production",
    "type": "CVA",
    "capacity": 0,
    "fuel_type": "Unknown",
    "status": "Unknown",
    "operator": "",
    "plant_id": "GBR0004640",
    "source": "electricityproduction.uk",
    "type_category": "Other"
  },
  {
    "lat": 55.6394,
    "lng": -4.3176,
    "name": "Whitelee Windfarm Extension phase 2 - UK Electricity Production",
    "type": "CVA",
    "capacity": 0,
    "fuel_type": "Unknown",
    "status": "Unknown",
    "operator": "",
    "plant_id": "GBR0002757",
    "source": "electricityproduction.uk",
    "type_category": "Other"
  },
  {
    "lat": 51.7308,
    "lng": 1.218,
    "name": "Gunfleet Sands 1 - UK Electricity Production",
    "type": "CVA",
    "capacity": 0,
    "fuel_type": "Unknown",
    "status": "Unknown",
    "operator": "",
    "plant_id": "GBR0002490",
    "source": "electricityproduction.uk",
    "type_category": "Other"
  },
  {
    "lat": 51.6246,
    "lng": -1.2683,
    "name": "Didcot GT - UK Electricity Production",
    "type": "CVA",
    "capacity": 0,
    "fuel_type": "Unknown",
    "status": "Unknown",
    "operator": "",
    "plant_id": "GBR1000377",
    "source": "electricityproduction.uk",
    "type_category": "Other"
  },
  {
    "lat": 57.1437,
    "lng": -4.6592,
    "name": "Glendoe - UK Electricity Production",
    "type": "CVA",
    "capacity": 0,
    "fuel_type": "Unknown",
    "status": "Unknown",
    "operator": "",
    "plant_id": "GBR0000388",
    "source": "electricityproduction.uk",
    "type_category": "Other"
  },
  {
    "lat": 53.1356,
    "lng": 0.4515,
    "name": "Lynn - UK Electricity Production",
    "type": "CVA",
    "capacity": 0,
    "fuel_type": "Unknown",
    "status": "Unknown",
    "operator": "",
    "plant_id": "GBR0002493",
    "source": "electricityproduction.uk",
    "type_category": "Other"
  },
  {
    "lat": 53.188,
    "lng": 0.4465,
    "name": "Inner Dowsing - UK Electricity Production",
    "type": "CVA",
    "capacity": 0,
    "fuel_type": "Unknown",
    "status": "Unknown",
    "operator": "",
    "plant_id": "GBR0002491",
    "source": "electricityproduction.uk",
    "type_category": "Other"
  },
  {
    "lat": 57.2515,
    "lng": -4.2558,
    "name": "Dunmaglass - UK Electricity Production",
    "type": "CVA",
    "capacity": 0,
    "fuel_type": "Unknown",
    "status": "Unknown",
    "operator": "",
    "plant_id": "GBR0004118",
    "source": "electricityproduction.uk",
    "type_category": "Other"
  },
  {
    "lat": 57.1462,
    "lng": -2.0728,
    "name": "European Offshore Wind Deployment Centre (EOWDC) (Aberdeen Bay - Demonstration site) - UK Electricity Production",
    "type": "CVA",
    "capacity": 0,
    "fuel_type": "Unknown",
    "status": "Unknown",
    "operator": "",
    "plant_id": "GBR2001029",
    "source": "electricityproduction.uk",
    "type_category": "Other"
  },
  {
    "lat": 57.3339,
    "lng": -4.103,
    "name": "Farr - UK Electricity Production",
    "type": "CVA",
    "capacity": 0,
    "fuel_type": "Unknown",
    "status": "Unknown",
    "operator": "",
    "plant_id": "GBR0004676",
    "source": "electricityproduction.uk",
    "type_category": "Other"
  },
  {
    "lat": 53.9915,
    "lng": -3.2983,
    "name": "Barrow - UK Electricity Production",
    "type": "CVA",
    "capacity": 0,
    "fuel_type": "Unknown",
    "status": "Unknown",
    "operator": "",
    "plant_id": "GBR0002546",
    "source": "electricityproduction.uk",
    "type_category": "Other"
  },
  {
    "lat": 53.4882,
    "lng": -3.1849,
    "name": "Burbo Bank - UK Electricity Production",
    "type": "CVA",
    "capacity": 0,
    "fuel_type": "Unknown",
    "status": "Unknown",
    "operator": "",
    "plant_id": "GBR0002487",
    "source": "electricityproduction.uk",
    "type_category": "Other"
  },
  {
    "lat": 53.3776,
    "lng": -3.6402,
    "name": "Rhyl Flats - UK Electricity Production",
    "type": "CVA",
    "capacity": 0,
    "fuel_type": "Unknown",
    "status": "Unknown",
    "operator": "",
    "plant_id": "GBR0002495",
    "source": "electricityproduction.uk",
    "type_category": "Other"
  },
  {
    "lat": 51.4606,
    "lng": 1.0938,
    "name": "Kentish Flats - UK Electricity Production",
    "type": "CVA",
    "capacity": 0,
    "fuel_type": "Unknown",
    "status": "Unknown",
    "operator": "",
    "plant_id": "GBR0002492",
    "source": "electricityproduction.uk",
    "type_category": "Other"
  },
  {
    "lat": 54.7642,
    "lng": -3.6955,
    "name": "Robin Rigg East - UK Electricity Production",
    "type": "CVA",
    "capacity": 0,
    "fuel_type": "Unknown",
    "status": "Unknown",
    "operator": "",
    "plant_id": "GBR0002496",
    "source": "electricityproduction.uk",
    "type_category": "Other"
  },
  {
    "lat": 54.7473,
    "lng": -3.7293,
    "name": "Robin Rigg West - UK Electricity Production",
    "type": "CVA",
    "capacity": 0,
    "fuel_type": "Unknown",
    "status": "Unknown",
    "operator": "",
    "plant_id": "GBR0002497",
    "source": "electricityproduction.uk",
    "type_category": "Other"
  },
  {
    "lat": 55.6327,
    "lng": -4.0361,
    "name": "Kype Muir Wind Farm - UK Electricity Production",
    "type": "CVA",
    "capacity": 0,
    "fuel_type": "Unknown",
    "status": "Unknown",
    "operator": "",
    "plant_id": "GBR2001075",
    "source": "electricityproduction.uk",
    "type_category": "Other"
  },
  {
    "lat": 57.0956,
    "lng": -4.9655,
    "name": "Beinneun - UK Electricity Production",
    "type": "CVA",
    "capacity": 0,
    "fuel_type": "Unknown",
    "status": "Unknown",
    "operator": "",
    "plant_id": "GBR0003787",
    "source": "electricityproduction.uk",
    "type_category": "Other"
  },
  {
    "lat": 53.3257,
    "lng": -2.7524,
    "name": "Runcorn EfW - UK Electricity Production",
    "type": "CVA",
    "capacity": 0,
    "fuel_type": "Unknown",
    "status": "Unknown",
    "operator": "",
    "plant_id": "GBR0000932",
    "source": "electricityproduction.uk",
    "type_category": "Other"
  },
  {
    "lat": 53.7164,
    "lng": -1.2819,
    "name": "Ferrybridge Multi-fuel - UK Electricity Production",
    "type": "CVA",
    "capacity": 0,
    "fuel_type": "Unknown",
    "status": "Unknown",
    "operator": "",
    "plant_id": "GBR0000116",
    "source": "electricityproduction.uk",
    "type_category": "Other"
  },
  {
    "lat": 56.9688,
    "lng": -2.4862,
    "name": "Mid Hill - UK Electricity Production",
    "type": "CVA",
    "capacity": 0,
    "fuel_type": "Unknown",
    "status": "Unknown",
    "operator": "",
    "plant_id": "GBR0004627",
    "source": "electricityproduction.uk",
    "type_category": "Other"
  },
  {
    "lat": 53.7364,
    "lng": -0.9981,
    "name": "Drax GT - UK Electricity Production",
    "type": "CVA",
    "capacity": 0,
    "fuel_type": "Unknown",
    "status": "Unknown",
    "operator": "",
    "plant_id": "GBR1000112",
    "source": "electricityproduction.uk",
    "type_category": "Other"
  },
  {
    "lat": 54.9203,
    "lng": -7.2889,
    "name": "Slieve Kirk - UK Electricity Production",
    "type": "CVA",
    "capacity": 0,
    "fuel_type": "Unknown",
    "status": "Unknown",
    "operator": "",
    "plant_id": "GBR0004058",
    "source": "electricityproduction.uk",
    "type_category": "Other"
  },
  {
    "lat": 56.2698,
    "lng": -4.0589,
    "name": "Braes of Doune Wind Farm - UK Electricity Production",
    "type": "CVA",
    "capacity": 0,
    "fuel_type": "Unknown",
    "status": "Unknown",
    "operator": "",
    "plant_id": "GBR0003119",
    "source": "electricityproduction.uk",
    "type_category": "Other"
  },
  {
    "lat": 51.4683,
    "lng": 0.1178,
    "name": "Riverside Resource Recovery Facility (RRRF) - UK Electricity Production",
    "type": "CVA",
    "capacity": 0,
    "fuel_type": "Unknown",
    "status": "Unknown",
    "operator": "",
    "plant_id": "GBR0000859",
    "source": "electricityproduction.uk",
    "type_category": "Other"
  },
  {
    "lat": 58.0595,
    "lng": -3.9591,
    "name": "Gordonbush - UK Electricity Production",
    "type": "CVA",
    "capacity": 0,
    "fuel_type": "Unknown",
    "status": "Unknown",
    "operator": "",
    "plant_id": "GBR0003662",
    "source": "electricityproduction.uk",
    "type_category": "Other"
  },
  {
    "lat": 57.6546,
    "lng": -4.8167,
    "name": "Lochluichart - UK Electricity Production",
    "type": "CVA",
    "capacity": 0,
    "fuel_type": "Unknown",
    "status": "Unknown",
    "operator": "",
    "plant_id": "GBR0004123",
    "source": "electricityproduction.uk",
    "type_category": "Other"
  },
  {
    "lat": 55.3043,
    "lng": -4.4882,
    "name": "Dersalloch - UK Electricity Production",
    "type": "CVA",
    "capacity": 0,
    "fuel_type": "Unknown",
    "status": "Unknown",
    "operator": "",
    "plant_id": "GBR0004269",
    "source": "electricityproduction.uk",
    "type_category": "Other"
  },
  {
    "lat": 57.1901,
    "lng": -4.3596,
    "name": "Corriegarth - UK Electricity Production",
    "type": "CVA",
    "capacity": 0,
    "fuel_type": "Unknown",
    "status": "Unknown",
    "operator": "",
    "plant_id": "GBR0004664",
    "source": "electricityproduction.uk",
    "type_category": "Other"
  },
  {
    "lat": 53.6118,
    "lng": -0.7637,
    "name": "Keadby - UK Electricity Production",
    "type": "CVA",
    "capacity": 0,
    "fuel_type": "Unknown",
    "status": "Unknown",
    "operator": "",
    "plant_id": "GBR0004260",
    "source": "electricityproduction.uk",
    "type_category": "Other"
  },
  {
    "lat": 58.49,
    "lng": -4.0336,
    "name": "Strathy North - UK Electricity Production",
    "type": "CVA",
    "capacity": 0,
    "fuel_type": "Unknown",
    "status": "Unknown",
    "operator": "",
    "plant_id": "GBR0004625",
    "source": "electricityproduction.uk",
    "type_category": "Other"
  },
  {
    "lat": 57.9924,
    "lng": -3.9787,
    "name": "Kilbraur - UK Electricity Production",
    "type": "CVA",
    "capacity": 0,
    "fuel_type": "Unknown",
    "status": "Unknown",
    "operator": "",
    "plant_id": "GBR0002673",
    "source": "electricityproduction.uk",
    "type_category": "Other"
  },
  {
    "lat": 60.1545,
    "lng": -1.1494,
    "name": "Lerwick - UK Electricity Production",
    "type": "CVA",
    "capacity": 0,
    "fuel_type": "Unknown",
    "status": "Unknown",
    "operator": "",
    "plant_id": "GBR1000414",
    "source": "electricityproduction.uk",
    "type_category": "Other"
  },
  {
    "lat": 57.4466,
    "lng": -3.4754,
    "name": "Berry Burn - UK Electricity Production",
    "type": "CVA",
    "capacity": 0,
    "fuel_type": "Unknown",
    "status": "Unknown",
    "operator": "",
    "plant_id": "GBR0004261",
    "source": "electricityproduction.uk",
    "type_category": "Other"
  },
  {
    "lat": 55.5396,
    "lng": -3.9754,
    "name": "Galawhistle - UK Electricity Production",
    "type": "CVA",
    "capacity": 0,
    "fuel_type": "Unknown",
    "status": "Unknown",
    "operator": "",
    "plant_id": "GBR0004368",
    "source": "electricityproduction.uk",
    "type_category": "Other"
  },
  {
    "lat": 51.1569,
    "lng": -4.1027,
    "name": "Fullabrook Down Wind Farm - UK Electricity Production",
    "type": "CVA",
    "capacity": 0,
    "fuel_type": "Unknown",
    "status": "Unknown",
    "operator": "",
    "plant_id": "GBR0004033",
    "source": "electricityproduction.uk",
    "type_category": "Other"
  },
  {
    "lat": 51.7272,
    "lng": 1.2459,
    "name": "Gunfleet Sands 2 - UK Electricity Production",
    "type": "CVA",
    "capacity": 0,
    "fuel_type": "Unknown",
    "status": "Unknown",
    "operator": "",
    "plant_id": "GBR0002489",
    "source": "electricityproduction.uk",
    "type_category": "Other"
  },
  {
    "lat": 53.669,
    "lng": -2.2679,
    "name": "Scout Moor - UK Electricity Production",
    "type": "CVA",
    "capacity": 0,
    "fuel_type": "Unknown",
    "status": "Unknown",
    "operator": "",
    "plant_id": "GBR0003177",
    "source": "electricityproduction.uk",
    "type_category": "Other"
  },
  {
    "lat": 57.1552,
    "lng": -4.8836,
    "name": "Millennium - UK Electricity Production",
    "type": "CVA",
    "capacity": 0,
    "fuel_type": "Unknown",
    "status": "Unknown",
    "operator": "",
    "plant_id": "GBR0002723",
    "source": "electricityproduction.uk",
    "type_category": "Other"
  },
  {
    "lat": 56.2012,
    "lng": -3.1623,
    "name": "Markinch CHP - UK Electricity Production",
    "type": "CVA",
    "capacity": 0,
    "fuel_type": "Unknown",
    "status": "Unknown",
    "operator": "",
    "plant_id": "GBR0000155",
    "source": "electricityproduction.uk",
    "type_category": "Other"
  },
  {
    "lat": 57.4462,
    "lng": -3.4762,
    "name": "Paul's Hill - UK Electricity Production",
    "type": "CVA",
    "capacity": 0,
    "fuel_type": "Unknown",
    "status": "Unknown",
    "operator": "",
    "plant_id": "GBR0004687",
    "source": "electricityproduction.uk",
    "type_category": "Other"
  },
  {
    "lat": 55.883,
    "lng": -2.5075,
    "name": "Crystal Rig - UK Electricity Production",
    "type": "CVA",
    "capacity": 0,
    "fuel_type": "Unknown",
    "status": "Unknown",
    "operator": "",
    "plant_id": "GBR0003114",
    "source": "electricityproduction.uk",
    "type_category": "Other"
  },
  {
    "lat": 54.6453,
    "lng": -1.0955,
    "name": "Teesside - UK Electricity Production",
    "type": "CVA",
    "capacity": 0,
    "fuel_type": "Unknown",
    "status": "Unknown",
    "operator": "",
    "plant_id": "GBR0002514",
    "source": "electricityproduction.uk",
    "type_category": "Other"
  },
  {
    "lat": 55.2922,
    "lng": -4.2031,
    "name": "Windy Standard II Wind Farm (Brockloch Rig Phase 1) - UK Electricity Production",
    "type": "CVA",
    "capacity": 0,
    "fuel_type": "Unknown",
    "status": "Unknown",
    "operator": "",
    "plant_id": "GBR0004431",
    "source": "electricityproduction.uk",
    "type_category": "Other"
  },
  {
    "lat": 57.55,
    "lng": -2.6167,
    "name": "Clunie - UK Electricity Production",
    "type": "CVA",
    "capacity": 0,
    "fuel_type": "Unknown",
    "status": "Unknown",
    "operator": "",
    "plant_id": "GBR1000405",
    "source": "electricityproduction.uk",
    "type_category": "Other"
  },
  {
    "lat": 55.9172,
    "lng": -2.4901,
    "name": "Aikengall II  Wester Dod Community Wind Farm - UK Electricity Production",
    "type": "CVA",
    "capacity": 0,
    "fuel_type": "Unknown",
    "status": "Unknown",
    "operator": "",
    "plant_id": "GBR0004332",
    "source": "electricityproduction.uk",
    "type_category": "Other"
  },
  {
    "lat": 53.4172,
    "lng": -3.4486,
    "name": "North Hoyle - UK Electricity Production",
    "type": "CVA",
    "capacity": 0,
    "fuel_type": "Unknown",
    "status": "Unknown",
    "operator": "",
    "plant_id": "GBR0002494",
    "source": "electricityproduction.uk",
    "type_category": "Other"
  },
  {
    "lat": 57.3888,
    "lng": -4.0488,
    "name": "Moy - UK Electricity Production",
    "type": "CVA",
    "capacity": 0,
    "fuel_type": "Unknown",
    "status": "Unknown",
    "operator": "",
    "plant_id": "GBR0003647",
    "source": "electricityproduction.uk",
    "type_category": "Other"
  },
  {
    "lat": 52.6439,
    "lng": 1.7889,
    "name": "Scroby Sands - UK Electricity Production",
    "type": "CVA",
    "capacity": 0,
    "fuel_type": "Unknown",
    "status": "Unknown",
    "operator": "",
    "plant_id": "GBR0002498",
    "source": "electricityproduction.uk",
    "type_category": "Other"
  },
  {
    "lat": 51.6163,
    "lng": -0.0404,
    "name": "Edmonton - UK Electricity Production",
    "type": "CVA",
    "capacity": 0,
    "fuel_type": "Unknown",
    "status": "Unknown",
    "operator": "",
    "plant_id": "GBR0004924",
    "source": "electricityproduction.uk",
    "type_category": "Other"
  },
  {
    "lat": 50.9638,
    "lng": 0.8227,
    "name": "Little Cheyne Court - UK Electricity Production",
    "type": "CVA",
    "capacity": 0,
    "fuel_type": "Unknown",
    "status": "Unknown",
    "operator": "",
    "plant_id": "GBR0003096",
    "source": "electricityproduction.uk",
    "type_category": "Other"
  },
  {
    "lat": 53.75,
    "lng": -2.4833,
    "name": "Blackburn - UK Electricity Production",
    "type": "CVA",
    "capacity": 0,
    "fuel_type": "Unknown",
    "status": "Unknown",
    "operator": "",
    "plant_id": "GBR1000464",
    "source": "electricityproduction.uk",
    "type_category": "Other"
  },
  {
    "lat": 52.405,
    "lng": -3.7507,
    "name": "Cefn Croes - UK Electricity Production",
    "type": "CVA",
    "capacity": 0,
    "fuel_type": "Unknown",
    "status": "Unknown",
    "operator": "",
    "plant_id": "GBR0002563",
    "source": "electricityproduction.uk",
    "type_category": "Other"
  },
  {
    "lat": 56.9688,
    "lng": -2.4862,
    "name": "Mid Hill I - UK Electricity Production",
    "type": "CVA",
    "capacity": 0,
    "fuel_type": "Unknown",
    "status": "Unknown",
    "operator": "",
    "plant_id": "GBR0004667",
    "source": "electricityproduction.uk",
    "type_category": "Other"
  },
  {
    "lat": 51.9606,
    "lng": -4.1234,
    "name": "Brechfa Forest West - UK Electricity Production",
    "type": "CVA",
    "capacity": 0,
    "fuel_type": "Unknown",
    "status": "Unknown",
    "operator": "",
    "plant_id": "GBR2001040",
    "source": "electricityproduction.uk",
    "type_category": "Other"
  },
  {
    "lat": 55.1284,
    "lng": -4.7463,
    "name": "Mark Hill - UK Electricity Production",
    "type": "CVA",
    "capacity": 0,
    "fuel_type": "Unknown",
    "status": "Unknown",
    "operator": "",
    "plant_id": "GBR0003260",
    "source": "electricityproduction.uk",
    "type_category": "Other"
  },
  {
    "lat": 53.7259,
    "lng": -1.3626,
    "name": "Castleford - UK Electricity Production",
    "type": "CVA",
    "capacity": 0,
    "fuel_type": "Unknown",
    "status": "Unknown",
    "operator": "",
    "plant_id": "GBR1000113",
    "source": "electricityproduction.uk",
    "type_category": "Other"
  },
  {
    "lat": 51.4444,
    "lng": 0.7114,
    "name": "Grain GT - UK Electricity Production",
    "type": "CVA",
    "capacity": 0,
    "fuel_type": "Unknown",
    "status": "Unknown",
    "operator": "",
    "plant_id": "GBR1000497",
    "source": "electricityproduction.uk",
    "type_category": "Other"
  },
  {
    "lat": 53.1623,
    "lng": -2.4037,
    "name": "Sandbach - UK Electricity Production",
    "type": "CVA",
    "capacity": 0,
    "fuel_type": "Unknown",
    "status": "Unknown",
    "operator": "",
    "plant_id": "GBR1000114",
    "source": "electricityproduction.uk",
    "type_category": "Other"
  },
  {
    "lat": 52.4076,
    "lng": -3.8772,
    "name": "Rheidol - UK Electricity Production",
    "type": "CVA",
    "capacity": 0,
    "fuel_type": "Unknown",
    "status": "Unknown",
    "operator": "",
    "plant_id": "GBR0003552",
    "source": "electricityproduction.uk",
    "type_category": "Other"
  },
  {
    "lat": 55.7622,
    "lng": -3.7626,
    "name": "Black Law 2 - UK Electricity Production",
    "type": "CVA",
    "capacity": 0,
    "fuel_type": "Unknown",
    "status": "Unknown",
    "operator": "",
    "plant_id": "GBR0004253",
    "source": "electricityproduction.uk",
    "type_category": "Other"
  },
  {
    "lat": 55.1822,
    "lng": -2.0714,
    "name": "Ray - UK Electricity Production",
    "type": "CVA",
    "capacity": 0,
    "fuel_type": "Unknown",
    "status": "Unknown",
    "operator": "",
    "plant_id": "GBR0004026",
    "source": "electricityproduction.uk",
    "type_category": "Other"
  },
  {
    "lat": 54.1903,
    "lng": -7.6284,
    "name": "Slieve Rushen Extension - UK Electricity Production",
    "type": "CVA",
    "capacity": 0,
    "fuel_type": "Unknown",
    "status": "Unknown",
    "operator": "",
    "plant_id": "GBR0004504",
    "source": "electricityproduction.uk",
    "type_category": "Other"
  },
  {
    "lat": 55.4986,
    "lng": -1.7678,
    "name": "Middlemoor - UK Electricity Production",
    "type": "CVA",
    "capacity": 0,
    "fuel_type": "Unknown",
    "status": "Unknown",
    "operator": "",
    "plant_id": "GBR0004019",
    "source": "electricityproduction.uk",
    "type_category": "Other"
  },
  {
    "lat": 55.0437,
    "lng": -7.2487,
    "name": "Coolkeeragh OCGT - UK Electricity Production",
    "type": "CVA",
    "capacity": 0,
    "fuel_type": "Unknown",
    "status": "Unknown",
    "operator": "",
    "plant_id": "GBR1000076",
    "source": "electricityproduction.uk",
    "type_category": "Other"
  },
  {
    "lat": 55.1199,
    "lng": -4.0321,
    "name": "Blackcraig - UK Electricity Production",
    "type": "CVA",
    "capacity": 0,
    "fuel_type": "Unknown",
    "status": "Unknown",
    "operator": "",
    "plant_id": "GBR2001048",
    "source": "electricityproduction.uk",
    "type_category": "Other"
  },
  {
    "lat": 58.5679,
    "lng": -3.677,
    "name": "Baillie - UK Electricity Production",
    "type": "CVA",
    "capacity": 0,
    "fuel_type": "Unknown",
    "status": "Unknown",
    "operator": "",
    "plant_id": "GBR0004021",
    "source": "electricityproduction.uk",
    "type_category": "Other"
  },
  {
    "lat": 55.8087,
    "lng": -3.5322,
    "name": "Harburnhead Wind Farm - UK Electricity Production",
    "type": "CVA",
    "capacity": 0,
    "fuel_type": "Unknown",
    "status": "Unknown",
    "operator": "",
    "plant_id": "GBR0004225",
    "source": "electricityproduction.uk",
    "type_category": "Other"
  },
  {
    "lat": 57.5373,
    "lng": -3.363,
    "name": "Rothes - UK Electricity Production",
    "type": "CVA",
    "capacity": 0,
    "fuel_type": "Unknown",
    "status": "Unknown",
    "operator": "",
    "plant_id": "GBR0003534",
    "source": "electricityproduction.uk",
    "type_category": "Other"
  },
  {
    "lat": 51.2865,
    "lng": 0.4904,
    "name": "Allington EFW - UK Electricity Production",
    "type": "CVA",
    "capacity": 0,
    "fuel_type": "Unknown",
    "status": "Unknown",
    "operator": "",
    "plant_id": "GBR0000886",
    "source": "electricityproduction.uk",
    "type_category": "Other"
  },
  {
    "lat": 51.3875,
    "lng": -3.4068,
    "name": "Aberthaw GT - UK Electricity Production",
    "type": "CVA",
    "capacity": 0,
    "fuel_type": "Unknown",
    "status": "Unknown",
    "operator": "",
    "plant_id": "GBR1000375",
    "source": "electricityproduction.uk",
    "type_category": "Other"
  },
  {
    "lat": 55.5129,
    "lng": -3.804,
    "name": "Middle Muir Wind Farm - UK Electricity Production",
    "type": "CVA",
    "capacity": 0,
    "fuel_type": "Unknown",
    "status": "Unknown",
    "operator": "",
    "plant_id": "GBR2001067",
    "source": "electricityproduction.uk",
    "type_category": "Other"
  },
  {
    "lat": 53.3006,
    "lng": -2.7689,
    "name": "Frodsham Wind Farm Ltd - UK Electricity Production",
    "type": "CVA",
    "capacity": 0,
    "fuel_type": "Unknown",
    "status": "Unknown",
    "operator": "",
    "plant_id": "GBR0003694",
    "source": "electricityproduction.uk",
    "type_category": "Other"
  },
  {
    "lat": 51.5244,
    "lng": -0.6277,
    "name": "Fibrepower  Slough - UK Electricity Production",
    "type": "CVA",
    "capacity": 0,
    "fuel_type": "Unknown",
    "status": "Unknown",
    "operator": "",
    "plant_id": "GBR0000831",
    "source": "electricityproduction.uk",
    "type_category": "Other"
  },
  {
    "lat": 55.1524,
    "lng": -3.3809,
    "name": "Steven's Croft - UK Electricity Production",
    "type": "CVA",
    "capacity": 0,
    "fuel_type": "Unknown",
    "status": "Unknown",
    "operator": "",
    "plant_id": "GBR0000196",
    "source": "electricityproduction.uk",
    "type_category": "Other"
  },
  {
    "lat": 58.4087,
    "lng": -3.2715,
    "name": "Camster - UK Electricity Production",
    "type": "CVA",
    "capacity": 0,
    "fuel_type": "Unknown",
    "status": "Unknown",
    "operator": "",
    "plant_id": "GBR0004006",
    "source": "electricityproduction.uk",
    "type_category": "Other"
  },
  {
    "lat": 53.6908,
    "lng": -1.6291,
    "name": "Thornhill - UK Electricity Production",
    "type": "CVA",
    "capacity": 0,
    "fuel_type": "Unknown",
    "status": "Unknown",
    "operator": "",
    "plant_id": "GBR1000115",
    "source": "electricityproduction.uk",
    "type_category": "Other"
  },
  {
    "lat": 55.3116,
    "lng": -4.1743,
    "name": "Afton Wind Farm - UK Electricity Production",
    "type": "CVA",
    "capacity": 0,
    "fuel_type": "Unknown",
    "status": "Unknown",
    "operator": "",
    "plant_id": "GBR2001058",
    "source": "electricityproduction.uk",
    "type_category": "Other"
  },
  {
    "lat": 53.7983,
    "lng": -0.421,
    "name": "Creyke Beck - UK Electricity Production",
    "type": "CVA",
    "capacity": 0,
    "fuel_type": "Unknown",
    "status": "Unknown",
    "operator": "",
    "plant_id": "GBR2001173",
    "source": "electricityproduction.uk",
    "type_category": "Other"
  },
  {
    "lat": 51.3669,
    "lng": 0.7589,
    "name": "K3 CHP Facility (Kemsley EfW) - UK Electricity Production",
    "type": "CVA",
    "capacity": 0,
    "fuel_type": "Unknown",
    "status": "Unknown",
    "operator": "",
    "plant_id": "GBR2001016",
    "source": "electricityproduction.uk",
    "type_category": "Other"
  },
  {
    "lat": 51.45,
    "lng": 1.08,
    "name": "Kentish Flats Extension - UK Electricity Production",
    "type": "CVA",
    "capacity": 0,
    "fuel_type": "Unknown",
    "status": "Unknown",
    "operator": "",
    "plant_id": "GBR0002504",
    "source": "electricityproduction.uk",
    "type_category": "Other"
  },
  {
    "lat": 51.9374,
    "lng": 0.1192,
    "name": "Pelham - UK Electricity Production",
    "type": "CVA",
    "capacity": 0,
    "fuel_type": "Unknown",
    "status": "Unknown",
    "operator": "",
    "plant_id": "GBR2001155",
    "source": "electricityproduction.uk",
    "type_category": "Other"
  },
  {
    "lat": 54.664,
    "lng": -3.5473,
    "name": "Iggesund Paperboard CHP Plant - UK Electricity Production",
    "type": "CVA",
    "capacity": 0,
    "fuel_type": "Unknown",
    "status": "Unknown",
    "operator": "",
    "plant_id": "GBR0000047",
    "source": "electricityproduction.uk",
    "type_category": "Other"
  },
  {
    "lat": 54.1052,
    "lng": -3.19,
    "name": "Roosecote - UK Electricity Production",
    "type": "CVA",
    "capacity": 0,
    "fuel_type": "Unknown",
    "status": "Unknown",
    "operator": "",
    "plant_id": "GBR2001160",
    "source": "electricityproduction.uk",
    "type_category": "Other"
  },
  {
    "lat": 54.5674,
    "lng": -1.0967,
    "name": "Wilton 11 EfW - UK Electricity Production",
    "type": "CVA",
    "capacity": 0,
    "fuel_type": "Unknown",
    "status": "Unknown",
    "operator": "",
    "plant_id": "GBR0000930",
    "source": "electricityproduction.uk",
    "type_category": "Other"
  },
  {
    "lat": 58.4435,
    "lng": -3.0854,
    "name": "Causeymire - UK Electricity Production",
    "type": "CVA",
    "capacity": 0,
    "fuel_type": "Unknown",
    "status": "Unknown",
    "operator": "",
    "plant_id": "GBR0003108",
    "source": "electricityproduction.uk",
    "type_category": "Other"
  },
  {
    "lat": 57.6228,
    "lng": -3.341,
    "name": "Hill of Towie - UK Electricity Production",
    "type": "CVA",
    "capacity": 0,
    "fuel_type": "Unknown",
    "status": "Unknown",
    "operator": "",
    "plant_id": "GBR0004014",
    "source": "electricityproduction.uk",
    "type_category": "Other"
  },
  {
    "lat": 55.9172,
    "lng": -2.4901,
    "name": "Aikengall - UK Electricity Production",
    "type": "CVA",
    "capacity": 0,
    "fuel_type": "Unknown",
    "status": "Unknown",
    "operator": "",
    "plant_id": "GBR0004526",
    "source": "electricityproduction.uk",
    "type_category": "Other"
  },
  {
    "lat": 58.0404,
    "lng": -4.0588,
    "name": "Kilbraur Windfarm - UK Electricity Production",
    "type": "CVA",
    "capacity": 0,
    "fuel_type": "Unknown",
    "status": "Unknown",
    "operator": "",
    "plant_id": "GBR0003202",
    "source": "electricityproduction.uk",
    "type_category": "Other"
  },
  {
    "lat": 57.6687,
    "lng": -4.773,
    "name": "Corriemoillie - UK Electricity Production",
    "type": "CVA",
    "capacity": 0,
    "fuel_type": "Unknown",
    "status": "Unknown",
    "operator": "",
    "plant_id": "GBR0004120",
    "source": "electricityproduction.uk",
    "type_category": "Other"
  },
  {
    "lat": 54.9667,
    "lng": -3.4667,
    "name": "Lochay - UK Electricity Production",
    "type": "CVA",
    "capacity": 0,
    "fuel_type": "Unknown",
    "status": "Unknown",
    "operator": "",
    "plant_id": "GBR1000384",
    "source": "electricityproduction.uk",
    "type_category": "Other"
  },
  {
    "lat": 56.339,
    "lng": -5.2945,
    "name": "Carraig Gheal - UK Electricity Production",
    "type": "CVA",
    "capacity": 0,
    "fuel_type": "Unknown",
    "status": "Unknown",
    "operator": "",
    "plant_id": "GBR0004619",
    "source": "electricityproduction.uk",
    "type_category": "Other"
  },
  {
    "lat": 50.6114,
    "lng": -2.4533,
    "name": "Chickerell - UK Electricity Production",
    "type": "CVA",
    "capacity": 0,
    "fuel_type": "Unknown",
    "status": "Unknown",
    "operator": "",
    "plant_id": "GBR1000442",
    "source": "electricityproduction.uk",
    "type_category": "Other"
  },
  {
    "lat": 51.4563,
    "lng": -0.9711,
    "name": "Burghfield - UK Electricity Production",
    "type": "CVA",
    "capacity": 0,
    "fuel_type": "Unknown",
    "status": "Unknown",
    "operator": "",
    "plant_id": "GBR1000441",
    "source": "electricityproduction.uk",
    "type_category": "Other"
  },
  {
    "lat": 56.6333,
    "lng": -4.3667,
    "name": "Rannoch - UK Electricity Production",
    "type": "CVA",
    "capacity": 0,
    "fuel_type": "Unknown",
    "status": "Unknown",
    "operator": "",
    "plant_id": "GBR1000408",
    "source": "electricityproduction.uk",
    "type_category": "Other"
  },
  {
    "lat": 52.4791,
    "lng": 0.9544,
    "name": "Snetterton Biomass Plant - UK Electricity Production",
    "type": "CVA",
    "capacity": 0,
    "fuel_type": "Unknown",
    "status": "Unknown",
    "operator": "",
    "plant_id": "GBR0000185",
    "source": "electricityproduction.uk",
    "type_category": "Other"
  },
  {
    "lat": 53.6223,
    "lng": -0.9356,
    "name": "Tween Bridge - UK Electricity Production",
    "type": "CVA",
    "capacity": 0,
    "fuel_type": "Unknown",
    "status": "Unknown",
    "operator": "",
    "plant_id": "GBR0003928",
    "source": "electricityproduction.uk",
    "type_category": "Other"
  },
  {
    "lat": 55.5732,
    "lng": -5.5874,
    "name": "Beinn an Tuirc 2 - UK Electricity Production",
    "type": "CVA",
    "capacity": 0,
    "fuel_type": "Unknown",
    "status": "Unknown",
    "operator": "",
    "plant_id": "GBR0004525",
    "source": "electricityproduction.uk",
    "type_category": "Other"
  },
  {
    "lat": 51.4604,
    "lng": 0.3497,
    "name": "Tilbury Green Power - UK Electricity Production",
    "type": "CVA",
    "capacity": 0,
    "fuel_type": "Unknown",
    "status": "Unknown",
    "operator": "",
    "plant_id": "GBR2001002",
    "source": "electricityproduction.uk",
    "type_category": "Other"
  },
  {
    "lat": 56.1528,
    "lng": -5.3102,
    "name": "A'Chruach - UK Electricity Production",
    "type": "CVA",
    "capacity": 0,
    "fuel_type": "Unknown",
    "status": "Unknown",
    "operator": "",
    "plant_id": "GBR0004331",
    "source": "electricityproduction.uk",
    "type_category": "Other"
  },
  {
    "lat": 53.4226,
    "lng": -1.3734,
    "name": "Templeborough Biomass Power Plant- Rotherham - UK Electricity Production",
    "type": "CVA",
    "capacity": 0,
    "fuel_type": "Unknown",
    "status": "Unknown",
    "operator": "",
    "plant_id": "GBR2001003",
    "source": "electricityproduction.uk",
    "type_category": "Other"
  },
  {
    "lat": 55.0804,
    "lng": -6.8886,
    "name": "Windyhill Road (Dunbeg) Wind Farm - UK Electricity Production",
    "type": "CVA",
    "capacity": 0,
    "fuel_type": "Unknown",
    "status": "Unknown",
    "operator": "",
    "plant_id": "GBR0004142",
    "source": "electricityproduction.uk",
    "type_category": "Other"
  },
  {
    "lat": 53.4251,
    "lng": -2.4195,
    "name": "SAICA Paper Mill - UK Electricity Production",
    "type": "CVA",
    "capacity": 0,
    "fuel_type": "Unknown",
    "status": "Unknown",
    "operator": "",
    "plant_id": "GBR0000132",
    "source": "electricityproduction.uk",
    "type_category": "Other"
  },
  {
    "lat": 52.4486,
    "lng": 0.7253,
    "name": "Thetford - UK Electricity Production",
    "type": "CVA",
    "capacity": 0,
    "fuel_type": "Unknown",
    "status": "Unknown",
    "operator": "",
    "plant_id": "GBR0000004",
    "source": "electricityproduction.uk",
    "type_category": "Other"
  },
  {
    "lat": 55.167,
    "lng": -1.3644,
    "name": "Blyth Offshore\u00a0Wind Test Site - UK Electricity Production",
    "type": "CVA",
    "capacity": 0,
    "fuel_type": "Unknown",
    "status": "Unknown",
    "operator": "",
    "plant_id": "GBR2001032",
    "source": "electricityproduction.uk",
    "type_category": "Other"
  },
  {
    "lat": 57.5373,
    "lng": -3.363,
    "name": "Rothes 2 - UK Electricity Production",
    "type": "CVA",
    "capacity": 0,
    "fuel_type": "Unknown",
    "status": "Unknown",
    "operator": "",
    "plant_id": "GBR0003951",
    "source": "electricityproduction.uk",
    "type_category": "Other"
  },
  {
    "lat": 52.5901,
    "lng": -2.01,
    "name": "Bloxwich Battery - UK Electricity Production",
    "type": "CVA",
    "capacity": 0,
    "fuel_type": "Unknown",
    "status": "Unknown",
    "operator": "",
    "plant_id": "GBR2001201",
    "source": "electricityproduction.uk",
    "type_category": "Other"
  },
  {
    "lat": 57.4691,
    "lng": -6.4322,
    "name": "Edinbane - UK Electricity Production",
    "type": "CVA",
    "capacity": 0,
    "fuel_type": "Unknown",
    "status": "Unknown",
    "operator": "",
    "plant_id": "GBR0004674",
    "source": "electricityproduction.uk",
    "type_category": "Other"
  },
  {
    "lat": 57.1552,
    "lng": -4.8836,
    "name": "Millennium Windfarm - UK Electricity Production",
    "type": "CVA",
    "capacity": 0,
    "fuel_type": "Unknown",
    "status": "Unknown",
    "operator": "",
    "plant_id": "GBR0004682",
    "source": "electricityproduction.uk",
    "type_category": "Other"
  },
  {
    "lat": 53.5423,
    "lng": -0.5096,
    "name": "Brigg Renewable Energy Plant (Re-submission) - UK Electricity Production",
    "type": "CVA",
    "capacity": 0,
    "fuel_type": "Unknown",
    "status": "Unknown",
    "operator": "",
    "plant_id": "GBR0000150",
    "source": "electricityproduction.uk",
    "type_category": "Other"
  },
  {
    "lat": 56.3,
    "lng": -5.5833,
    "name": "Clachan - UK Electricity Production",
    "type": "CVA",
    "capacity": 0,
    "fuel_type": "Unknown",
    "status": "Unknown",
    "operator": "",
    "plant_id": "GBR1000401",
    "source": "electricityproduction.uk",
    "type_category": "Other"
  },
  {
    "lat": 57.5329,
    "lng": -4.6315,
    "name": "Fairburn - UK Electricity Production",
    "type": "CVA",
    "capacity": 0,
    "fuel_type": "Unknown",
    "status": "Unknown",
    "operator": "",
    "plant_id": "GBR0004675",
    "source": "electricityproduction.uk",
    "type_category": "Other"
  },
  {
    "lat": 51.0936,
    "lng": 0.5083,
    "name": "Huggin's Hall - UK Electricity Production",
    "type": "CVA",
    "capacity": 0,
    "fuel_type": "Unknown",
    "status": "Unknown",
    "operator": "",
    "plant_id": "GBR2001174",
    "source": "electricityproduction.uk",
    "type_category": "Other"
  },
  {
    "lat": 51.5633,
    "lng": -3.7479,
    "name": "Margam Green Energy Plant - UK Electricity Production",
    "type": "CVA",
    "capacity": 0,
    "fuel_type": "Unknown",
    "status": "Unknown",
    "operator": "",
    "plant_id": "GBR0000113",
    "source": "electricityproduction.uk",
    "type_category": "Other"
  },
  {
    "lat": 52.5169,
    "lng": -2.0288,
    "name": "Oldbury - UK Electricity Production",
    "type": "CVA",
    "capacity": 0,
    "fuel_type": "Unknown",
    "status": "Unknown",
    "operator": "",
    "plant_id": "GBR0000950",
    "source": "electricityproduction.uk",
    "type_category": "Other"
  },
  {
    "lat": 53.3631,
    "lng": -0.7976,
    "name": "West Burton GT - UK Electricity Production",
    "type": "CVA",
    "capacity": 0,
    "fuel_type": "Unknown",
    "status": "Unknown",
    "operator": "",
    "plant_id": "GBR1000146",
    "source": "electricityproduction.uk",
    "type_category": "Other"
  },
  {
    "lat": 52.999,
    "lng": -0.3827,
    "name": "Sleaford Renewable Energy Plant - UK Electricity Production",
    "type": "CVA",
    "capacity": 0,
    "fuel_type": "Unknown",
    "status": "Unknown",
    "operator": "",
    "plant_id": "GBR0000206",
    "source": "electricityproduction.uk",
    "type_category": "Other"
  },
  {
    "lat": 57.3929,
    "lng": -3.8917,
    "name": "Tom Nan Clach (redesign) - UK Electricity Production",
    "type": "CVA",
    "capacity": 0,
    "fuel_type": "Unknown",
    "status": "Unknown",
    "operator": "",
    "plant_id": "GBR2001064",
    "source": "electricityproduction.uk",
    "type_category": "Other"
  },
  {
    "lat": 54.5683,
    "lng": -7.441,
    "name": "Pollnalaght (Cornavarrow) - UK Electricity Production",
    "type": "CVA",
    "capacity": 0,
    "fuel_type": "Unknown",
    "status": "Unknown",
    "operator": "",
    "plant_id": "GBR2001051",
    "source": "electricityproduction.uk",
    "type_category": "Other"
  },
  {
    "lat": 54.5674,
    "lng": -1.0967,
    "name": "Wilton 10 - UK Electricity Production",
    "type": "CVA",
    "capacity": 0,
    "fuel_type": "Unknown",
    "status": "Unknown",
    "operator": "",
    "plant_id": "GBR0000035",
    "source": "electricityproduction.uk",
    "type_category": "Other"
  },
  {
    "lat": 58.0019,
    "lng": -4.5,
    "name": "Achany - UK Electricity Production",
    "type": "CVA",
    "capacity": 0,
    "fuel_type": "Unknown",
    "status": "Unknown",
    "operator": "",
    "plant_id": "GBR0003205",
    "source": "electricityproduction.uk",
    "type_category": "Other"
  },
  {
    "lat": 55.6692,
    "lng": -2.8275,
    "name": "Longpark - UK Electricity Production",
    "type": "CVA",
    "capacity": 0,
    "fuel_type": "Unknown",
    "status": "Unknown",
    "operator": "",
    "plant_id": "GBR0003605",
    "source": "electricityproduction.uk",
    "type_category": "Other"
  },
  {
    "lat": 57.5167,
    "lng": -4.9333,
    "name": "Deanie - UK Electricity Production",
    "type": "CVA",
    "capacity": 0,
    "fuel_type": "Unknown",
    "status": "Unknown",
    "operator": "",
    "plant_id": "GBR1000381",
    "source": "electricityproduction.uk",
    "type_category": "Other"
  },
  {
    "lat": 52.3979,
    "lng": 0.1297,
    "name": "Elean - UK Electricity Production",
    "type": "CVA",
    "capacity": 0,
    "fuel_type": "Unknown",
    "status": "Unknown",
    "operator": "",
    "plant_id": "GBR0000078",
    "source": "electricityproduction.uk",
    "type_category": "Other"
  },
  {
    "lat": 53.109,
    "lng": -3.5031,
    "name": "Brenig Wind Farm (Resubmission) - UK Electricity Production",
    "type": "CVA",
    "capacity": 0,
    "fuel_type": "3.0 MW",
    "status": "Unknown",
    "operator": "",
    "plant_id": "GBR2001094",
    "source": "electricityproduction.uk",
    "type_category": "Other"
  },
  {
    "lat": 54.9806,
    "lng": -6.765,
    "name": "Brockaghboy Wind Farm - UK Electricity Production",
    "type": "CVA",
    "capacity": 0,
    "fuel_type": "Unknown",
    "status": "Unknown",
    "operator": "",
    "plant_id": "GBR0004249",
    "source": "electricityproduction.uk",
    "type_category": "Other"
  },
  {
    "lat": 56.0708,
    "lng": -4.0955,
    "name": "Earlsburn - UK Electricity Production",
    "type": "CVA",
    "capacity": 0,
    "fuel_type": "Unknown",
    "status": "Unknown",
    "operator": "",
    "plant_id": "GBR0003201",
    "source": "electricityproduction.uk",
    "type_category": "Other"
  },
  {
    "lat": 57.1971,
    "lng": -4.8694,
    "name": "Glenmoriston - UK Electricity Production",
    "type": "CVA",
    "capacity": 0,
    "fuel_type": "Unknown",
    "status": "Unknown",
    "operator": "",
    "plant_id": "GBR1000394",
    "source": "electricityproduction.uk",
    "type_category": "Other"
  },
  {
    "lat": 51.4872,
    "lng": -0.5251,
    "name": "Lakeside EfW - UK Electricity Production",
    "type": "CVA",
    "capacity": 0,
    "fuel_type": "Unknown",
    "status": "Unknown",
    "operator": "",
    "plant_id": "GBR0000865",
    "source": "electricityproduction.uk",
    "type_category": "Other"
  },
  {
    "lat": 57.3665,
    "lng": -2.8661,
    "name": "Clashindarroch - UK Electricity Production",
    "type": "CVA",
    "capacity": 0,
    "fuel_type": "Unknown",
    "status": "Unknown",
    "operator": "",
    "plant_id": "GBR0004623",
    "source": "electricityproduction.uk",
    "type_category": "Other"
  },
  {
    "lat": 57.71,
    "lng": -4.427,
    "name": "Novar 2 - UK Electricity Production",
    "type": "CVA",
    "capacity": 0,
    "fuel_type": "Unknown",
    "status": "Unknown",
    "operator": "",
    "plant_id": "GBR0004013",
    "source": "electricityproduction.uk",
    "type_category": "Other"
  },
  {
    "lat": 56.6222,
    "lng": -3.232,
    "name": "Drumderg - UK Electricity Production",
    "type": "CVA",
    "capacity": 0,
    "fuel_type": "Unknown",
    "status": "Unknown",
    "operator": "",
    "plant_id": "GBR0004009",
    "source": "electricityproduction.uk",
    "type_category": "Other"
  },
  {
    "lat": 55.1221,
    "lng": -3.3529,
    "name": "Minsca - UK Electricity Production",
    "type": "CVA",
    "capacity": 0,
    "fuel_type": "Unknown",
    "status": "Unknown",
    "operator": "",
    "plant_id": "GBR0004517",
    "source": "electricityproduction.uk",
    "type_category": "Other"
  },
  {
    "lat": 55.5093,
    "lng": -3.8463,
    "name": "Andershaw - UK Electricity Production",
    "type": "CVA",
    "capacity": 0,
    "fuel_type": "Unknown",
    "status": "Unknown",
    "operator": "",
    "plant_id": "GBR0004110",
    "source": "electricityproduction.uk",
    "type_category": "Other"
  },
  {
    "lat": 55.624,
    "lng": -3.9842,
    "name": "Auchrobert Wind Farm - UK Electricity Production",
    "type": "CVA",
    "capacity": 0,
    "fuel_type": "Unknown",
    "status": "Unknown",
    "operator": "",
    "plant_id": "GBR0004337",
    "source": "electricityproduction.uk",
    "type_category": "Other"
  },
  {
    "lat": 57.2016,
    "lng": -4.7213,
    "name": "Great Glen Scheme - UK Electricity Production",
    "type": "CVA",
    "capacity": 0,
    "fuel_type": "Unknown",
    "status": "Unknown",
    "operator": "",
    "plant_id": "GBR2001012",
    "source": "electricityproduction.uk",
    "type_category": "Other"
  },
  {
    "lat": 55.1323,
    "lng": -2.127,
    "name": "Green Rigg - UK Electricity Production",
    "type": "CVA",
    "capacity": 0,
    "fuel_type": "Unknown",
    "status": "Unknown",
    "operator": "",
    "plant_id": "GBR0004044",
    "source": "electricityproduction.uk",
    "type_category": "Other"
  },
  {
    "lat": 52.946,
    "lng": -3.9879,
    "name": "Maentwrog - UK Electricity Production",
    "type": "CVA",
    "capacity": 0,
    "fuel_type": "Unknown",
    "status": "Unknown",
    "operator": "",
    "plant_id": "GBR1000310",
    "source": "electricityproduction.uk",
    "type_category": "Other"
  },
  {
    "lat": 51.3875,
    "lng": -3.4066,
    "name": "Aberthaw Power Station Biomass - UK Electricity Production",
    "type": "CVA",
    "capacity": 0,
    "fuel_type": "Unknown",
    "status": "Unknown",
    "operator": "",
    "plant_id": "GBR0000001",
    "source": "electricityproduction.uk",
    "type_category": "Other"
  },
  {
    "lat": 54.8021,
    "lng": -4.6577,
    "name": "Airies Farm - UK Electricity Production",
    "type": "CVA",
    "capacity": 0,
    "fuel_type": "Unknown",
    "status": "Unknown",
    "operator": "",
    "plant_id": "GBR0004462",
    "source": "electricityproduction.uk",
    "type_category": "Other"
  },
  {
    "lat": 54.9773,
    "lng": -1.4559,
    "name": "Port of Tyne - UK Electricity Production",
    "type": "CVA",
    "capacity": 0,
    "fuel_type": "Unknown",
    "status": "Unknown",
    "operator": "",
    "plant_id": "GBR2001169",
    "source": "electricityproduction.uk",
    "type_category": "Other"
  },
  {
    "lat": 51.5095,
    "lng": -0.5954,
    "name": "Slough - UK Electricity Production",
    "type": "CVA",
    "capacity": 0,
    "fuel_type": "Unknown",
    "status": "Unknown",
    "operator": "",
    "plant_id": "GBR1000439",
    "source": "electricityproduction.uk",
    "type_category": "Other"
  },
  {
    "lat": 53.6768,
    "lng": -0.8868,
    "name": "Goole Fields 2 - UK Electricity Production",
    "type": "CVA",
    "capacity": 0,
    "fuel_type": "Unknown",
    "status": "Unknown",
    "operator": "",
    "plant_id": "GBR0004070",
    "source": "electricityproduction.uk",
    "type_category": "Other"
  },
  {
    "lat": 51.7728,
    "lng": -3.929,
    "name": "Mynydd y Betws - UK Electricity Production",
    "type": "CVA",
    "capacity": 0,
    "fuel_type": "Unknown",
    "status": "Unknown",
    "operator": "",
    "plant_id": "GBR0004061",
    "source": "electricityproduction.uk",
    "type_category": "Other"
  },
  {
    "lat": 54.705,
    "lng": -7.591,
    "name": "Tievenameenta - UK Electricity Production",
    "type": "CVA",
    "capacity": 0,
    "fuel_type": "Unknown",
    "status": "Unknown",
    "operator": "",
    "plant_id": "GBR0004124",
    "source": "electricityproduction.uk",
    "type_category": "Other"
  },
  {
    "lat": 56.7075,
    "lng": -4.021,
    "name": "Tummel - UK Electricity Production",
    "type": "CVA",
    "capacity": 0,
    "fuel_type": "Unknown",
    "status": "Unknown",
    "operator": "",
    "plant_id": "GBR1000409",
    "source": "electricityproduction.uk",
    "type_category": "Other"
  },
  {
    "lat": 58.4309,
    "lng": -3.4444,
    "name": "Halsary Wind Farm - UK Electricity Production",
    "type": "CVA",
    "capacity": 0,
    "fuel_type": "Unknown",
    "status": "Unknown",
    "operator": "",
    "plant_id": "GBR2001074",
    "source": "electricityproduction.uk",
    "type_category": "Other"
  },
  {
    "lat": 52.4131,
    "lng": -3.2841,
    "name": "Garreg Lwyd - UK Electricity Production",
    "type": "CVA",
    "capacity": 0,
    "fuel_type": "Unknown",
    "status": "Unknown",
    "operator": "",
    "plant_id": "GBR0003711",
    "source": "electricityproduction.uk",
    "type_category": "Other"
  },
  {
    "lat": 52.8653,
    "lng": -1.255,
    "name": "Ratcliffe GT - UK Electricity Production",
    "type": "CVA",
    "capacity": 0,
    "fuel_type": "Unknown",
    "status": "Unknown",
    "operator": "",
    "plant_id": "GBR1000498",
    "source": "electricityproduction.uk",
    "type_category": "Other"
  },
  {
    "lat": 52.5494,
    "lng": -3.6082,
    "name": "Carno - UK Electricity Production",
    "type": "CVA",
    "capacity": 0,
    "fuel_type": "Unknown",
    "status": "Unknown",
    "operator": "",
    "plant_id": "GBR0002564",
    "source": "electricityproduction.uk",
    "type_category": "Other"
  },
  {
    "lat": 53.474,
    "lng": -2.2079,
    "name": "Ardwick Railway Goods Yard Incinerator (Newhaven EFW Plant) - UK Electricity Production",
    "type": "CVA",
    "capacity": 0,
    "fuel_type": "Unknown",
    "status": "Unknown",
    "operator": "",
    "plant_id": "GBR0000897",
    "source": "electricityproduction.uk",
    "type_category": "Other"
  },
  {
    "lat": 55.0736,
    "lng": -4.1408,
    "name": "Tongland - UK Electricity Production",
    "type": "CVA",
    "capacity": 0,
    "fuel_type": "Unknown",
    "status": "Unknown",
    "operator": "",
    "plant_id": "GBR1000461",
    "source": "electricityproduction.uk",
    "type_category": "Other"
  },
  {
    "lat": 53.4201,
    "lng": -1.3985,
    "name": "Blackburn Meadows - UK Electricity Production",
    "type": "CVA",
    "capacity": 0,
    "fuel_type": "Unknown",
    "status": "Unknown",
    "operator": "",
    "plant_id": "GBR0000166",
    "source": "electricityproduction.uk",
    "type_category": "Other"
  },
  {
    "lat": 53.6659,
    "lng": -0.8893,
    "name": "Goole Fields - UK Electricity Production",
    "type": "CVA",
    "capacity": 0,
    "fuel_type": "Unknown",
    "status": "Unknown",
    "operator": "",
    "plant_id": "GBR0004373",
    "source": "electricityproduction.uk",
    "type_category": "Other"
  },
  {
    "lat": 51.7492,
    "lng": -3.9381,
    "name": "Mynydd Y Gwair Wind Farm (resubmission) - UK Electricity Production",
    "type": "CVA",
    "capacity": 0,
    "fuel_type": "Unknown",
    "status": "Unknown",
    "operator": "",
    "plant_id": "GBR2001077",
    "source": "electricityproduction.uk",
    "type_category": "Other"
  },
  {
    "lat": 55.3442,
    "lng": -4.0466,
    "name": "Sanquhar Community Windfarm - UK Electricity Production",
    "type": "CVA",
    "capacity": 0,
    "fuel_type": "Unknown",
    "status": "Unknown",
    "operator": "",
    "plant_id": "GBR2001068",
    "source": "electricityproduction.uk",
    "type_category": "Other"
  },
  {
    "lat": 51.5924,
    "lng": -3.7802,
    "name": "Baglan Bay OCGT - UK Electricity Production",
    "type": "CVA",
    "capacity": 0,
    "fuel_type": "Unknown",
    "status": "Unknown",
    "operator": "",
    "plant_id": "GBR1000314",
    "source": "electricityproduction.uk",
    "type_category": "Other"
  },
  {
    "lat": 56.6277,
    "lng": -3.8761,
    "name": "Calliachar - UK Electricity Production",
    "type": "CVA",
    "capacity": 0,
    "fuel_type": "Unknown",
    "status": "Unknown",
    "operator": "",
    "plant_id": "GBR0004027",
    "source": "electricityproduction.uk",
    "type_category": "Other"
  },
  {
    "lat": 51.5406,
    "lng": -2.6553,
    "name": "Severnside Energy Recovery Centre - UK Electricity Production",
    "type": "CVA",
    "capacity": 0,
    "fuel_type": "Unknown",
    "status": "Unknown",
    "operator": "",
    "plant_id": "GBR0000918",
    "source": "electricityproduction.uk",
    "type_category": "Other"
  },
  {
    "lat": 51.683,
    "lng": -3.6287,
    "name": "Ffynnon Oer - UK Electricity Production",
    "type": "CVA",
    "capacity": 0,
    "fuel_type": "Unknown",
    "status": "Unknown",
    "operator": "",
    "plant_id": "GBR0004677",
    "source": "electricityproduction.uk",
    "type_category": "Other"
  },
  {
    "lat": 53.1912,
    "lng": -3.8426,
    "name": "Dolgarrog - UK Electricity Production",
    "type": "CVA",
    "capacity": 0,
    "fuel_type": "Unknown",
    "status": "Unknown",
    "operator": "",
    "plant_id": "GBR2001081",
    "source": "electricityproduction.uk",
    "type_category": "Other"
  },
  {
    "lat": 51.4846,
    "lng": -0.0454,
    "name": "SELCHP ERF - UK Electricity Production",
    "type": "CVA",
    "capacity": 0,
    "fuel_type": "Unknown",
    "status": "Unknown",
    "operator": "",
    "plant_id": "GBR0004928",
    "source": "electricityproduction.uk",
    "type_category": "Other"
  },
  {
    "lat": 52.4421,
    "lng": -3.4308,
    "name": "Llandinam Windfarm - UK Electricity Production",
    "type": "CVA",
    "capacity": 0,
    "fuel_type": "Unknown",
    "status": "Unknown",
    "operator": "",
    "plant_id": "GBR0003057",
    "source": "electricityproduction.uk",
    "type_category": "Other"
  },
  {
    "lat": 55.0107,
    "lng": -3.0263,
    "name": "Beck Burn (resubmission) - UK Electricity Production",
    "type": "CVA",
    "capacity": 0,
    "fuel_type": "Unknown",
    "status": "Unknown",
    "operator": "",
    "plant_id": "GBR0004544",
    "source": "electricityproduction.uk",
    "type_category": "Other"
  },
  {
    "lat": 55.1841,
    "lng": -3.6506,
    "name": "Dalswinton - UK Electricity Production",
    "type": "CVA",
    "capacity": 0,
    "fuel_type": "Unknown",
    "status": "Unknown",
    "operator": "",
    "plant_id": "GBR0004520",
    "source": "electricityproduction.uk",
    "type_category": "Other"
  },
  {
    "lat": 55.8048,
    "lng": -3.6721,
    "name": "Tormywheel - UK Electricity Production",
    "type": "CVA",
    "capacity": 0,
    "fuel_type": "Unknown",
    "status": "Unknown",
    "operator": "",
    "plant_id": "GBR0004263",
    "source": "electricityproduction.uk",
    "type_category": "Other"
  },
  {
    "lat": 56.2091,
    "lng": -3.7728,
    "name": "Burnfoot Hill - UK Electricity Production",
    "type": "CVA",
    "capacity": 0,
    "fuel_type": "Unknown",
    "status": "Unknown",
    "operator": "",
    "plant_id": "GBR0002902",
    "source": "electricityproduction.uk",
    "type_category": "Other"
  },
  {
    "lat": 57.5075,
    "lng": -1.4426,
    "name": "Hywind Scotland Pilot Park (Hywind 2) Demonstrator - UK Electricity Production",
    "type": "CVA",
    "capacity": 0,
    "fuel_type": "Unknown",
    "status": "Unknown",
    "operator": "",
    "plant_id": "GBR0002479",
    "source": "electricityproduction.uk",
    "type_category": "Other"
  },
  {
    "lat": 55.659,
    "lng": -4.2091,
    "name": "West Browncastle - UK Electricity Production",
    "type": "CVA",
    "capacity": 0,
    "fuel_type": "Unknown",
    "status": "Unknown",
    "operator": "",
    "plant_id": "GBR0004427",
    "source": "electricityproduction.uk",
    "type_category": "Other"
  },
  {
    "lat": 54.5778,
    "lng": -7.5141,
    "name": "Curraghamulkin (Dooish Wind Farm) - UK Electricity Production",
    "type": "CVA",
    "capacity": 0,
    "fuel_type": "Unknown",
    "status": "Unknown",
    "operator": "",
    "plant_id": "GBR2001053",
    "source": "electricityproduction.uk",
    "type_category": "Other"
  },
  {
    "lat": 55.7046,
    "lng": -3.0677,
    "name": "Roughside Hill - UK Electricity Production",
    "type": "CVA",
    "capacity": 0,
    "fuel_type": "Unknown",
    "status": "Unknown",
    "operator": "",
    "plant_id": "GBR0003299",
    "source": "electricityproduction.uk",
    "type_category": "Other"
  },
  {
    "lat": 54.5086,
    "lng": -7.1064,
    "name": "Slieve Divena - UK Electricity Production",
    "type": "CVA",
    "capacity": 0,
    "fuel_type": "Unknown",
    "status": "Unknown",
    "operator": "",
    "plant_id": "GBR0003245",
    "source": "electricityproduction.uk",
    "type_category": "Other"
  },
  {
    "lat": 51.4726,
    "lng": -3.1506,
    "name": "Trident Park - UK Electricity Production",
    "type": "CVA",
    "capacity": 0,
    "fuel_type": "Unknown",
    "status": "Unknown",
    "operator": "",
    "plant_id": "GBR0000922",
    "source": "electricityproduction.uk",
    "type_category": "Other"
  },
  {
    "lat": 52.4557,
    "lng": -1.8499,
    "name": "Tyseley ERF - UK Electricity Production",
    "type": "CVA",
    "capacity": 0,
    "fuel_type": "Unknown",
    "status": "Unknown",
    "operator": "",
    "plant_id": "GBR0000816",
    "source": "electricityproduction.uk",
    "type_category": "Other"
  },
  {
    "lat": 54.0071,
    "lng": -0.2885,
    "name": "Lissett - UK Electricity Production",
    "type": "CVA",
    "capacity": 0,
    "fuel_type": "Unknown",
    "status": "Unknown",
    "operator": "",
    "plant_id": "GBR0003539",
    "source": "electricityproduction.uk",
    "type_category": "Other"
  },
  {
    "lat": 58.5793,
    "lng": -3.1324,
    "name": "Hill of Stroupster Windfarm - UK Electricity Production",
    "type": "CVA",
    "capacity": 0,
    "fuel_type": "Unknown",
    "status": "Unknown",
    "operator": "",
    "plant_id": "GBR0004121",
    "source": "electricityproduction.uk",
    "type_category": "Other"
  },
  {
    "lat": 55.8674,
    "lng": -2.3527,
    "name": "Quixwood Moor - UK Electricity Production",
    "type": "CVA",
    "capacity": 0,
    "fuel_type": "Unknown",
    "status": "Unknown",
    "operator": "",
    "plant_id": "GBR0004179",
    "source": "electricityproduction.uk",
    "type_category": "Other"
  },
  {
    "lat": 57.7696,
    "lng": -4.3732,
    "name": "Coire Na Cloiche Wind Farm - UK Electricity Production",
    "type": "CVA",
    "capacity": 0,
    "fuel_type": "Unknown",
    "status": "Unknown",
    "operator": "",
    "plant_id": "GBR2001044",
    "source": "electricityproduction.uk",
    "type_category": "Other"
  },
  {
    "lat": 58.5719,
    "lng": -3.137,
    "name": "Stroupster - UK Electricity Production",
    "type": "CVA",
    "capacity": 0,
    "fuel_type": "Unknown",
    "status": "Unknown",
    "operator": "",
    "plant_id": "GBR0003433",
    "source": "electricityproduction.uk",
    "type_category": "Other"
  },
  {
    "lat": 57.8053,
    "lng": -4.329,
    "name": "Beinn Tharsuinn Windfarm Project - UK Electricity Production",
    "type": "CVA",
    "capacity": 0,
    "fuel_type": "Unknown",
    "status": "Unknown",
    "operator": "",
    "plant_id": "GBR0004669",
    "source": "electricityproduction.uk",
    "type_category": "Other"
  },
  {
    "lat": 55.7868,
    "lng": -2.8423,
    "name": "Dun Law 2 - UK Electricity Production",
    "type": "CVA",
    "capacity": 0,
    "fuel_type": "Unknown",
    "status": "Unknown",
    "operator": "",
    "plant_id": "GBR0003579",
    "source": "electricityproduction.uk",
    "type_category": "Other"
  },
  {
    "lat": 57.7882,
    "lng": -4.2482,
    "name": "Beinn Tharsuinn - UK Electricity Production",
    "type": "CVA",
    "capacity": 0,
    "fuel_type": "Unknown",
    "status": "Unknown",
    "operator": "",
    "plant_id": "GBR0002991",
    "source": "electricityproduction.uk",
    "type_category": "Other"
  },
  {
    "lat": 56.039,
    "lng": -5.1559,
    "name": "Cruach Mhor - UK Electricity Production",
    "type": "CVA",
    "capacity": 0,
    "fuel_type": "Unknown",
    "status": "Unknown",
    "operator": "",
    "plant_id": "GBR0003585",
    "source": "electricityproduction.uk",
    "type_category": "Other"
  },
  {
    "lat": 55.5732,
    "lng": -5.5874,
    "name": "Beinn an Tuirc 1 - UK Electricity Production",
    "type": "CVA",
    "capacity": 0,
    "fuel_type": "Unknown",
    "status": "Unknown",
    "operator": "",
    "plant_id": "GBR0003292",
    "source": "electricityproduction.uk",
    "type_category": "Other"
  },
  {
    "lat": 54.0479,
    "lng": -0.2307,
    "name": "Fraisthorpe Wind Farm - UK Electricity Production",
    "type": "CVA",
    "capacity": 0,
    "fuel_type": "Unknown",
    "status": "Unknown",
    "operator": "",
    "plant_id": "GBR0004647",
    "source": "electricityproduction.uk",
    "type_category": "Other"
  },
  {
    "lat": 53.6082,
    "lng": -0.905,
    "name": "Twin Rivers - UK Electricity Production",
    "type": "CVA",
    "capacity": 0,
    "fuel_type": "Unknown",
    "status": "Unknown",
    "operator": "",
    "plant_id": "GBR0003657",
    "source": "electricityproduction.uk",
    "type_category": "Other"
  },
  {
    "lat": 55.8969,
    "lng": -2.3213,
    "name": "Penmanshiel Wind Farm - UK Electricity Production",
    "type": "CVA",
    "capacity": 0,
    "fuel_type": "Unknown",
    "status": "Unknown",
    "operator": "",
    "plant_id": "GBR0004600",
    "source": "electricityproduction.uk",
    "type_category": "Other"
  },
  {
    "lat": 55.7992,
    "lng": -2.4322,
    "name": "Black Hill - UK Electricity Production",
    "type": "CVA",
    "capacity": 0,
    "fuel_type": "Unknown",
    "status": "Unknown",
    "operator": "",
    "plant_id": "GBR0003574",
    "source": "electricityproduction.uk",
    "type_category": "Other"
  },
  {
    "lat": 55.8979,
    "lng": -2.2619,
    "name": "Drone Hill - UK Electricity Production",
    "type": "CVA",
    "capacity": 0,
    "fuel_type": "Unknown",
    "status": "Unknown",
    "operator": "",
    "plant_id": "GBR0004023",
    "source": "electricityproduction.uk",
    "type_category": "Other"
  },
  {
    "lat": 54.5471,
    "lng": -7.6956,
    "name": "Tappaghan Wind Farm - UK Electricity Production",
    "type": "CVA",
    "capacity": 0,
    "fuel_type": "Unknown",
    "status": "Unknown",
    "operator": "",
    "plant_id": "GBR0003130",
    "source": "electricityproduction.uk",
    "type_category": "Other"
  },
  {
    "lat": 55.6374,
    "lng": -4.2119,
    "name": "Calder Water Community Wind Farm - UK Electricity Production",
    "type": "CVA",
    "capacity": 0,
    "fuel_type": "Unknown",
    "status": "Unknown",
    "operator": "",
    "plant_id": "GBR0003688",
    "source": "electricityproduction.uk",
    "type_category": "Other"
  },
  {
    "lat": 54.6399,
    "lng": -7.7526,
    "name": "Crighshane - UK Electricity Production",
    "type": "CVA",
    "capacity": 0,
    "fuel_type": "Unknown",
    "status": "Unknown",
    "operator": "",
    "plant_id": "GBR0004041",
    "source": "electricityproduction.uk",
    "type_category": "Other"
  },
  {
    "lat": 55.7563,
    "lng": -4.8062,
    "name": "Kelburn - UK Electricity Production",
    "type": "CVA",
    "capacity": 0,
    "fuel_type": "Unknown",
    "status": "Unknown",
    "operator": "",
    "plant_id": "GBR0003149",
    "source": "electricityproduction.uk",
    "type_category": "Other"
  },
  {
    "lat": 57.4298,
    "lng": -6.4583,
    "name": "Ben Aketil - UK Electricity Production",
    "type": "CVA",
    "capacity": 0,
    "fuel_type": "Unknown",
    "status": "Unknown",
    "operator": "",
    "plant_id": "GBR0003135",
    "source": "electricityproduction.uk",
    "type_category": "Other"
  },
  {
    "lat": 54.9705,
    "lng": -7.0348,
    "name": "Glenconway 2 (formerly Altahullion Phase III) - UK Electricity Production",
    "type": "CVA",
    "capacity": 0,
    "fuel_type": "Unknown",
    "status": "Unknown",
    "operator": "",
    "plant_id": "GBR0003955",
    "source": "electricityproduction.uk",
    "type_category": "Other"
  },
  {
    "lat": 55.2265,
    "lng": -4.7787,
    "name": "Assel Valley - UK Electricity Production",
    "type": "CVA",
    "capacity": 0,
    "fuel_type": "Unknown",
    "status": "Unknown",
    "operator": "",
    "plant_id": "GBR0004645",
    "source": "electricityproduction.uk",
    "type_category": "Other"
  },
  {
    "lat": 54.9841,
    "lng": -6.442,
    "name": "Long Mountain - UK Electricity Production",
    "type": "CVA",
    "capacity": 0,
    "fuel_type": "Unknown",
    "status": "Unknown",
    "operator": "",
    "plant_id": "GBR0004652",
    "source": "electricityproduction.uk",
    "type_category": "Other"
  },
  {
    "lat": 55.7686,
    "lng": -2.8774,
    "name": "Toddleburn - UK Electricity Production",
    "type": "CVA",
    "capacity": 0,
    "fuel_type": "Unknown",
    "status": "Unknown",
    "operator": "",
    "plant_id": "GBR0003457",
    "source": "electricityproduction.uk",
    "type_category": "Other"
  },
  {
    "lat": 57.5105,
    "lng": -3.6156,
    "name": "Hill of Glaschyle Wind Farm - UK Electricity Production",
    "type": "CVA",
    "capacity": 0,
    "fuel_type": "Unknown",
    "status": "Unknown",
    "operator": "",
    "plant_id": "GBR0004381",
    "source": "electricityproduction.uk",
    "type_category": "Other"
  },
  {
    "lat": 54.9634,
    "lng": -4.7543,
    "name": "Glenchamber - UK Electricity Production",
    "type": "CVA",
    "capacity": 0,
    "fuel_type": "Unknown",
    "status": "Unknown",
    "operator": "",
    "plant_id": "GBR0004638",
    "source": "electricityproduction.uk",
    "type_category": "Other"
  },
  {
    "lat": 56.2492,
    "lng": -3.6663,
    "name": "Green Knowes - UK Electricity Production",
    "type": "CVA",
    "capacity": 0,
    "fuel_type": "Unknown",
    "status": "Unknown",
    "operator": "",
    "plant_id": "GBR0003487",
    "source": "electricityproduction.uk",
    "type_category": "Other"
  },
  {
    "lat": 54.0326,
    "lng": -1.3805,
    "name": "Allerton Waste Recovery Park (EfW) - UK Electricity Production",
    "type": "CVA",
    "capacity": 0,
    "fuel_type": "Unknown",
    "status": "Unknown",
    "operator": "",
    "plant_id": "GBR2001017",
    "source": "electricityproduction.uk",
    "type_category": "Other"
  },
  {
    "lat": 58.4205,
    "lng": -3.4292,
    "name": "Bad a Cheo Wind Farm - UK Electricity Production",
    "type": "CVA",
    "capacity": 0,
    "fuel_type": "Unknown",
    "status": "Unknown",
    "operator": "",
    "plant_id": "GBR2001076",
    "source": "electricityproduction.uk",
    "type_category": "Other"
  },
  {
    "lat": 55.2016,
    "lng": -1.5396,
    "name": "Lynemouth - UK Electricity Production",
    "type": "CVA",
    "capacity": 0,
    "fuel_type": "Unknown",
    "status": "Unknown",
    "operator": "",
    "plant_id": "GBR0003752",
    "source": "electricityproduction.uk",
    "type_category": "Other"
  },
  {
    "lat": 51.7365,
    "lng": -3.6596,
    "name": "Maesgwyn - UK Electricity Production",
    "type": "CVA",
    "capacity": 0,
    "fuel_type": "Unknown",
    "status": "Unknown",
    "operator": "",
    "plant_id": "GBR0002674",
    "source": "electricityproduction.uk",
    "type_category": "Other"
  },
  {
    "lat": 55.5796,
    "lng": -4.6395,
    "name": "Caledonian Papermill - UK Electricity Production",
    "type": "CVA",
    "capacity": 0,
    "fuel_type": "Unknown",
    "status": "Unknown",
    "operator": "",
    "plant_id": "GBR0000034",
    "source": "electricityproduction.uk",
    "type_category": "Other"
  },
  {
    "lat": 55.6086,
    "lng": -4.0977,
    "name": "Dungavel - UK Electricity Production",
    "type": "CVA",
    "capacity": 0,
    "fuel_type": "Unknown",
    "status": "Unknown",
    "operator": "",
    "plant_id": "GBR0004362",
    "source": "electricityproduction.uk",
    "type_category": "Other"
  },
  {
    "lat": 51.3805,
    "lng": -0.1472,
    "name": "Beddington EfW - UK Electricity Production",
    "type": "CVA",
    "capacity": 0,
    "fuel_type": "Unknown",
    "status": "Unknown",
    "operator": "",
    "plant_id": "GBR2001015",
    "source": "electricityproduction.uk",
    "type_category": "Other"
  },
  {
    "lat": 52.166,
    "lng": 0.316,
    "name": "Wadlow - UK Electricity Production",
    "type": "CVA",
    "capacity": 0,
    "fuel_type": "Unknown",
    "status": "Unknown",
    "operator": "",
    "plant_id": "GBR0003935",
    "source": "electricityproduction.uk",
    "type_category": "Other"
  },
  {
    "lat": 52.9379,
    "lng": -0.2178,
    "name": "Bicker Fen - UK Electricity Production",
    "type": "CVA",
    "capacity": 0,
    "fuel_type": "Unknown",
    "status": "Unknown",
    "operator": "",
    "plant_id": "GBR0003128",
    "source": "electricityproduction.uk",
    "type_category": "Other"
  },